altitude,availableBikes,availableDocks,city,id,landMark,lastCommunicationTime,latitude,location,longitude,postalCode,stAddress1,stAddress2,stationName,statusKey,statusValue,testStation,totalDocks,district
,37,18,,281,,2018-10-17 11:00:28 AM,40.7643971,,-73.97371465,,Grand Army Plaza & Central Park S,,Grand Army Plaza & Central Park S,1,In Service,False,57,105
,15,18,,304,,2018-10-17 10:59:33 AM,40.70463334,,-74.01361706,,Broadway & Battery Pl,,Broadway & Battery Pl,1,In Service,False,33,101
,20,29,,359,,2018-10-17 11:00:04 AM,40.75510267,,-73.97498696,,E 47 St & Park Ave,,E 47 St & Park Ave,1,In Service,False,53,105
,25,17,,377,,2018-10-17 11:03:16 AM,40.72243797,,-74.00566443,,6 Ave & Canal St,,6 Ave & Canal St,1,In Service,False,45,102
,12,25,,402,,2018-10-17 11:02:21 AM,40.7403432,,-73.98955109,,Broadway & E 22 St,,Broadway & E 22 St,1,In Service,False,39,105
,7,20,,426,,2018-10-17 11:02:06 AM,40.71754834,,-74.01322069,,West St & Chambers St,,West St & Chambers St,1,In Service,False,29,101
,31,18,,491,,2018-10-17 11:02:40 AM,40.74096374,,-73.98602213,,E 24 St & Park Ave S,,E 24 St & Park Ave S,1,In Service,False,51,105
,3,34,,520,,2018-10-17 11:03:12 AM,40.75992262,,-73.97648516,,W 52 St & 5 Ave,,W 52 St & 5 Ave,1,In Service,False,39,105
,19,34,,3223,,2018-10-17 11:00:59 AM,40.758996559605116,,-73.96865397691727,,E 55 St & 3 Ave,,E 55 St & 3 Ave,1,In Service,False,53,106
,13,28,,3443,,2018-10-17 11:01:57 AM,40.76132983124814,,-73.97982001304626,,W 52 St & 6 Ave,,W 52 St & 6 Ave,1,In Service,False,41,105
,1,38,,72,,2018-10-17 11:00:35 AM,40.76727216,,-73.99392888,,W 52 St & 11 Ave,,W 52 St & 11 Ave,1,In Service,False,39,104
,31,1,,79,,2018-10-17 11:03:21 AM,40.71911552,,-74.00666661,,Franklin St & W Broadway,,Franklin St & W Broadway,1,In Service,False,33,101
,0,27,,82,,2018-10-17 11:02:05 AM,40.71117416,,-74.00016545,,St James Pl & Pearl St,,St James Pl & Pearl St,1,In Service,False,27,103
,0,0,,83,,2018-10-09 09:05:09 AM,40.68382604,,-73.97632328,,Atlantic Ave & Fort Greene Pl,,Atlantic Ave & Fort Greene Pl,3,Not In Service,False,0,302
,11,7,,119,,2018-10-17 10:59:57 AM,40.69608941,,-73.97803415,,Park Ave & St Edwards St,,Park Ave & St Edwards St,1,In Service,False,19,302
,1,17,,120,,2018-10-17 11:02:05 AM,40.68676793,,-73.95928168,,Lexington Ave & Classon Ave,,Lexington Ave & Classon Ave,1,In Service,False,19,303
,15,13,,127,,2018-10-17 11:01:51 AM,40.73172428,,-74.00674436,,Barrow St & Hudson St,,Barrow St & Hudson St,1,In Service,False,31,102
,28,0,,128,,2018-10-17 11:02:16 AM,40.72710258,,-74.00297088,,MacDougal St & Prince St,,MacDougal St & Prince St,1,In Service,False,30,102
,6,17,,143,,2018-10-17 10:59:46 AM,40.69239502,,-73.99337909,,Clinton St & Joralemon St,,Clinton St & Joralemon St,1,In Service,False,24,302
,19,0,,144,,2018-10-17 11:02:28 AM,40.69839895,,-73.98068914,,Nassau St & Navy St,,Nassau St & Navy St,1,In Service,False,19,302
,16,23,,146,,2018-10-17 11:02:21 AM,40.71625008,,-74.0091059,,Hudson St & Reade St,,Hudson St & Reade St,1,In Service,False,39,101
,0,29,,150,,2018-10-17 11:03:13 AM,40.7208736,,-73.98085795,,E 2 St & Avenue C,,E 2 St & Avenue C,1,In Service,False,29,103
,14,19,,151,,2018-10-17 11:03:26 AM,40.722103786686034,,-73.99724900722504,,Cleveland Pl & Spring St,,Cleveland Pl & Spring St,1,In Service,False,33,102
,1,21,,157,,2018-10-17 11:01:17 AM,40.69089272,,-73.99612349,,Henry St & Atlantic Ave,,Henry St & Atlantic Ave,1,In Service,False,23,302
,25,5,,161,,2018-10-17 11:01:55 AM,40.72917025,,-73.99810231,,LaGuardia Pl & W 3 St,,LaGuardia Pl & W 3 St,3,Not In Service,False,30,102
,36,10,,164,,2018-10-17 11:01:31 AM,40.75323098,,-73.97032517,,E 47 St & 2 Ave,,E 47 St & 2 Ave,1,In Service,False,47,106
,35,10,,167,,2018-10-17 11:00:47 AM,40.7489006,,-73.97604882,,E 39 St & 3 Ave,,E 39 St & 3 Ave,1,In Service,False,45,106
,44,2,,168,,2018-10-17 11:02:36 AM,40.73971301,,-73.99456405,,W 18 St & 6 Ave,,W 18 St & 6 Ave,1,In Service,False,47,105
,30,20,,173,,2018-10-17 11:03:09 AM,40.76068327096592,,-73.9845272898674,,Broadway & W 49 St,,Broadway & W 49 St,1,In Service,False,51,105
,2,26,,174,,2018-10-17 11:02:33 AM,40.7381765,,-73.97738662,,E 25 St & 1 Ave,,E 25 St & 1 Ave,1,In Service,False,30,106
,43,1,,195,,2018-10-17 10:59:50 AM,40.70905623,,-74.01043382,,Liberty St & Broadway,,Liberty St & Broadway,1,In Service,False,45,101
,24,3,,212,,2018-10-17 11:01:46 AM,40.74334935,,-74.00681753,,W 16 St & The High Line,,W 16 St & The High Line,1,In Service,False,28,104
,1,22,,216,,2018-10-17 11:02:26 AM,40.70037867,,-73.99548059,,Columbia Heights & Cranberry St,,Columbia Heights & Cranberry St,1,In Service,False,23,302
,32,7,,217,,2018-10-17 11:02:53 AM,40.70277159,,-73.99383605,,Old Fulton St,,Old Fulton St,1,In Service,False,39,302
,1,32,,223,,2018-10-17 11:00:07 AM,40.73781509,,-73.99994661,,W 13 St & 7 Ave,,W 13 St & 7 Ave,1,In Service,False,33,102
,52,1,,228,,2018-10-17 11:03:20 AM,40.7546011026,,-73.971878855,,E 48 St & 3 Ave,,E 48 St & 3 Ave,1,In Service,False,55,106
,17,6,,229,,2018-10-17 11:01:55 AM,40.72743423,,-73.99379025,,Great Jones St,,Great Jones St,1,In Service,False,23,102
,10,12,,232,,2018-10-17 11:01:05 AM,40.69597683,,-73.99014892,,Cadman Plaza E & Tillary St,,Cadman Plaza E & Tillary St,1,In Service,False,23,302
,0,39,,236,,2018-10-17 11:00:10 AM,40.7284186,,-73.98713956,,St Marks Pl & 2 Ave,,St Marks Pl & 2 Ave,1,In Service,False,39,103
,2,37,,237,,2018-10-17 11:02:27 AM,40.73047309,,-73.98672378,,E 11 St & 2 Ave,,E 11 St & 2 Ave,1,In Service,False,39,103
,3,25,,238,,2018-10-17 11:03:17 AM,40.7361967,,-74.00859207,,Bank St & Washington St,,Bank St & Washington St,1,In Service,False,31,102
,29,1,,239,,2018-10-17 11:03:21 AM,40.69196566,,-73.9813018,,Willoughby St & Fleet St,,Willoughby St & Fleet St,1,In Service,False,31,302
,12,9,,241,,2018-10-17 11:01:40 AM,40.68981035,,-73.97493121,,DeKalb Ave & S Portland Ave,,DeKalb Ave & S Portland Ave,1,In Service,False,23,302
,22,0,,242,,2018-10-17 11:02:44 AM,40.697787,,-73.973736,,Carlton Ave & Flushing Ave,,Carlton Ave & Flushing Ave,1,In Service,False,23,302
,27,1,,243,,2018-10-17 10:59:36 AM,40.688226,,-73.979382,,Fulton St & Rockwell Pl,,Fulton St & Rockwell Pl,1,In Service,False,31,302
,0,31,,244,,2018-10-17 11:02:09 AM,40.69196035,,-73.96536851,,Willoughby Ave & Hall St,,Willoughby Ave & Hall St,1,In Service,False,31,302
,7,14,,245,,2018-10-17 11:02:14 AM,40.69327018,,-73.97703874,,Myrtle Ave & St Edwards St,,Myrtle Ave & St Edwards St,1,In Service,False,23,302
,0,20,,247,,2018-10-17 11:00:17 AM,40.73535398,,-74.00483091,,Perry St & Bleecker St,,Perry St & Bleecker St,1,In Service,False,20,102
,17,5,,248,,2018-10-17 11:02:01 AM,40.72185379,,-74.00771779,,Laight St & Hudson St,,Laight St & Hudson St,1,In Service,False,23,101
,14,13,,249,,2018-10-17 11:00:34 AM,40.71870987,,-74.0090009,,Harrison St & Hudson St,,Harrison St & Hudson St,1,In Service,False,27,101
,3,23,,251,,2018-10-17 11:00:57 AM,40.72317958,,-73.99480012,,Mott St & Prince St,,Mott St & Prince St,1,In Service,False,27,102
,1,32,,252,,2018-10-17 11:02:36 AM,40.73226398,,-73.99852205,,MacDougal St & Washington Sq,,MacDougal St & Washington Sq,1,In Service,False,33,102
,2,29,,254,,2018-10-17 10:59:40 AM,40.73532427,,-73.99800419,,W 11 St & 6 Ave,,W 11 St & 6 Ave,1,In Service,False,31,102
,38,0,,257,,2018-10-17 11:02:16 AM,40.71939226,,-74.00247214,,Lispenard St & Broadway,,Lispenard St & Broadway,1,In Service,False,39,101
,0,23,,258,,2018-10-17 11:00:34 AM,40.68940747,,-73.96885458,,DeKalb Ave & Vanderbilt Ave,,DeKalb Ave & Vanderbilt Ave,1,In Service,False,23,302
,36,3,,259,,2018-10-17 11:03:26 AM,40.70122128,,-74.01234218,,South St & Whitehall St,,South St & Whitehall St,1,In Service,False,39,101
,35,0,,260,,2018-10-17 11:03:22 AM,40.70365182,,-74.01167797,,Broad St & Bridge St,,Broad St & Bridge St,1,In Service,False,35,101
,15,12,,261,,2018-10-17 11:03:15 AM,40.69474881,,-73.98362464,,Johnson St & Gold St,,Johnson St & Gold St,1,In Service,False,27,302
,0,24,,262,,2018-10-17 11:03:13 AM,40.6917823,,-73.9737299,,Washington Park,,Washington Park,1,In Service,False,24,302
,22,3,,264,,2018-10-17 10:59:49 AM,40.70706456,,-74.00731853,,Maiden Ln & Pearl St,,Maiden Ln & Pearl St,1,In Service,False,27,101
,1,34,,265,,2018-10-17 11:02:55 AM,40.72229346,,-73.99147535,,Stanton St & Chrystie St,,Stanton St & Chrystie St,1,In Service,False,35,103
,0,24,,266,,2018-10-17 11:00:47 AM,40.72368361,,-73.97574813,,Avenue D & E 8 St,,Avenue D & E 8 St,1,In Service,False,24,103
,5,49,,267,,2018-10-17 11:03:29 AM,40.75097711,,-73.98765428,,Broadway & W 36 St,,Broadway & W 36 St,1,In Service,False,57,105
,25,0,,268,,2018-10-17 11:02:42 AM,40.71910537,,-73.99973337,,Howard St & Centre St,,Howard St & Centre St,1,In Service,False,27,102
,0,23,,270,,2018-10-17 10:59:42 AM,40.69308257,,-73.97178913,,Adelphi St & Myrtle Ave,,Adelphi St & Myrtle Ave,1,In Service,False,23,302
,15,16,,274,,2018-10-17 11:02:02 AM,40.68691865,,-73.976682,,Lafayette Ave & Fort Greene Pl,,Lafayette Ave & Fort Greene Pl,1,In Service,False,31,302
,0,18,,275,,2018-10-17 10:59:52 AM,40.68650065,,-73.96563307,,Washington Ave & Greene Ave,,Washington Ave & Greene Ave,1,In Service,False,19,302
,21,4,,276,,2018-10-17 11:01:42 AM,40.71748752,,-74.0104554,,Duane St & Greenwich St,,Duane St & Greenwich St,1,In Service,False,25,101
,13,5,,278,,2018-10-17 11:01:33 AM,40.69766564,,-73.98476437,,Concord St & Bridge St,,Concord St & Bridge St,1,In Service,False,19,302
,12,22,,279,,2018-10-17 11:02:59 AM,40.707873,,-74.00167,,Peck Slip & Front St,,Peck Slip & Front St,1,In Service,False,36,101
,3,26,,280,,2018-10-17 11:03:22 AM,40.73331967,,-73.99510132,,E 10 St & 5 Ave,,E 10 St & 5 Ave,1,In Service,False,31,102
,5,21,,282,,2018-10-17 10:53:51 AM,40.707644944175705,,-73.96841526031494,,Kent Ave & S 11 St,,Kent Ave & S 11 St,1,In Service,False,27,301
,9,42,,285,,2018-10-17 11:00:05 AM,40.73454567,,-73.99074142,,Broadway & E 14 St,,Broadway & E 14 St,1,In Service,False,51,102
,5,14,,289,,2018-10-17 11:02:47 AM,40.6845683,,-73.95881081,,Monroe St & Classon Ave,,Monroe St & Classon Ave,1,In Service,False,19,303
,0,19,,291,,2018-10-17 11:02:37 AM,40.713126,,-73.984844,,Madison St & Montgomery St,,Madison St & Montgomery St,1,In Service,False,20,103
,1,54,,293,,2018-10-17 11:00:55 AM,40.73020660529954,,-73.99102628231049,,Lafayette St & E 8 St,,Lafayette St & E 8 St,1,In Service,False,55,102
,1,23,,295,,2018-10-17 11:01:02 AM,40.71406667,,-73.99293911,,Pike St & E Broadway,,Pike St & E Broadway,1,In Service,False,24,103
,0,34,,296,,2018-10-17 11:02:59 AM,40.71413089,,-73.9970468,,Division St & Bowery,,Division St & Bowery,1,In Service,False,35,103
,0,26,,297,,2018-10-17 11:00:31 AM,40.734232,,-73.986923,,E 15 St & 3 Ave,,E 15 St & 3 Ave,1,In Service,False,27,106
,19,15,,298,,2018-10-17 11:00:42 AM,40.68683208,,-73.9796772,,3 Ave & Schermerhorn St,,3 Ave & Schermerhorn St,1,In Service,False,35,302
,0,37,,301,,2018-10-17 11:01:10 AM,40.72217444,,-73.98368779,,E 2 St & Avenue B,,E 2 St & Avenue B,1,In Service,False,37,103
,0,22,,302,,2018-10-17 11:01:48 AM,40.72082834,,-73.97793172,,Avenue D & E 3 St,,Avenue D & E 3 St,1,In Service,False,23,103
,26,2,,303,,2018-10-17 11:01:18 AM,40.72362738,,-73.99949601,,Mercer St & Spring St,,Mercer St & Spring St,1,In Service,False,31,102
,16,16,,305,,2018-10-17 11:02:40 AM,40.76095756,,-73.96724467,,E 58 St & 3 Ave,,E 58 St & 3 Ave,1,In Service,False,33,106
,1,28,,307,,2018-10-17 11:02:40 AM,40.71427487,,-73.98990025,,Canal St & Rutgers St,,Canal St & Rutgers St,1,In Service,False,30,103
,0,25,,308,,2018-10-17 11:00:39 AM,40.71307916,,-73.99851193,,St James Pl & Oliver St,,St James Pl & Oliver St,1,In Service,False,27,103
,41,0,,309,,2018-10-17 11:01:16 AM,40.7149787,,-74.013012,,Murray St & West St,,Murray St & West St,1,In Service,False,41,101
,14,22,,310,,2018-10-17 11:01:03 AM,40.68926942,,-73.98912867,,State St & Smith St,,State St & Smith St,1,In Service,False,36,302
,3,28,,311,,2018-10-17 10:59:39 AM,40.7172274,,-73.98802084,,Norfolk St & Broome St,,Norfolk St & Broome St,1,In Service,False,31,103
,0,30,,312,,2018-10-17 11:00:18 AM,40.722055,,-73.989111,,Allen St & Stanton St,,Allen St & Stanton St,1,In Service,False,31,103
,13,10,,313,,2018-10-17 11:02:42 AM,40.69610226,,-73.96751037,,Washington Ave & Park Ave,,Washington Ave & Park Ave,1,In Service,False,23,302
,20,18,,314,,2018-10-17 11:00:26 AM,40.69383,,-73.990539,,Cadman Plaza West & Montague St,,Cadman Plaza West & Montague St,1,In Service,False,39,302
,20,8,,315,,2018-10-17 11:00:26 AM,40.70355377,,-74.00670227,,South St & Gouverneur Ln,,South St & Gouverneur Ln,1,In Service,False,29,101
,12,30,,316,,2018-10-17 11:02:35 AM,40.70955958,,-74.00653609,,Fulton St & William St,,Fulton St & William St,1,In Service,False,43,101
,1,26,,317,,2018-10-17 11:03:15 AM,40.72453734,,-73.98185424,,E 6 St & Avenue B,,E 6 St & Avenue B,1,In Service,False,27,103
,33,0,,319,,2018-10-17 11:01:09 AM,40.711066,,-74.009447,,Fulton St & Broadway,,Fulton St & Broadway,1,In Service,False,33,101
,21,5,,320,,2018-10-17 11:02:44 AM,40.717571,,-74.005549,,Leonard St & Church St,,Leonard St & Church St,1,In Service,False,27,101
,27,0,,321,,2018-10-17 11:01:36 AM,40.69991755,,-73.98971773,,Cadman Plaza E & Red Cross Pl,,Cadman Plaza E & Red Cross Pl,1,In Service,False,27,302
,5,26,,322,,2018-10-17 11:00:01 AM,40.696192,,-73.991218,,Clinton St & Tillary St,,Clinton St & Tillary St,1,In Service,False,31,302
,39,0,,323,,2018-10-17 11:02:49 AM,40.69236178,,-73.98631746,,Lawrence St & Willoughby St,,Lawrence St & Willoughby St,1,In Service,False,39,302
,50,0,,324,,2018-10-17 11:03:21 AM,40.689888,,-73.981013,,DeKalb Ave & Hudson Ave,,DeKalb Ave & Hudson Ave,1,In Service,False,51,302
,3,32,,325,,2018-10-17 10:59:55 AM,40.73624527,,-73.98473765,,E 19 St & 3 Ave,,E 19 St & 3 Ave,1,In Service,False,35,106
,0,26,,326,,2018-10-17 11:01:21 AM,40.72953837,,-73.98426726,,E 11 St & 1 Ave,,E 11 St & 1 Ave,1,In Service,False,27,103
,22,16,,327,,2018-10-17 11:02:47 AM,40.7153379,,-74.01658354,,Vesey Pl & River Terrace,,Vesey Pl & River Terrace,1,In Service,False,39,101
,15,8,,328,,2018-10-17 11:03:08 AM,40.72405549,,-74.00965965,,Watts St & Greenwich St,,Watts St & Greenwich St,1,In Service,False,23,101
,35,3,,330,,2018-10-17 10:59:56 AM,40.71450451,,-74.00562789,,Reade St & Broadway,,Reade St & Broadway,1,In Service,False,39,101
,2,24,,331,,2018-10-17 11:01:29 AM,40.71173107,,-73.99193043,,Pike St & Monroe St,,Pike St & Monroe St,1,In Service,False,27,103
,0,24,,332,,2018-10-17 11:01:52 AM,40.71219906,,-73.97948148,,Cherry St,,Cherry St,1,In Service,False,24,103
,1,30,,334,,2018-10-17 11:02:50 AM,40.74238787,,-73.99726235,,W 20 St & 7 Ave,,W 20 St & 7 Ave,1,In Service,False,31,104
,23,2,,335,,2018-10-17 11:00:09 AM,40.72903917,,-73.99404649,,Washington Pl & Broadway,,Washington Pl & Broadway,1,In Service,False,27,102
,23,13,,336,,2018-10-17 11:02:14 AM,40.73047747,,-73.99906065,,Sullivan St & Washington Sq,,Sullivan St & Washington Sq,1,In Service,False,36,102
,35,0,,337,,2018-10-17 11:00:24 AM,40.7037992,,-74.00838676,,Old Slip & Front St,,Old Slip & Front St,1,In Service,False,37,101
,0,22,,339,,2018-10-17 11:02:27 AM,40.72580614,,-73.97422494,,Avenue D & E 12 St,,Avenue D & E 12 St,1,In Service,False,24,103
,0,27,,340,,2018-10-17 11:03:22 AM,40.71269042,,-73.98776323,,Madison St & Clinton St,,Madison St & Clinton St,1,In Service,False,27,103
,1,18,,341,,2018-10-17 11:02:02 AM,40.71782143,,-73.97628939,,Stanton St & Mangin St,,Stanton St & Mangin St,1,In Service,False,19,103
,0,27,,342,,2018-10-17 11:01:36 AM,40.71739973,,-73.98016555,,Columbia St & Rivington St,,Columbia St & Rivington St,1,In Service,False,29,103
,21,1,,343,,2018-10-17 11:01:13 AM,40.69794,,-73.96986848,,Clinton Ave & Flushing Ave,,Clinton Ave & Flushing Ave,1,In Service,False,23,302
,1,22,,344,,2018-10-17 11:02:30 AM,40.6851443,,-73.95380904,,Monroe St & Bedford Ave,,Monroe St & Bedford Ave,1,In Service,False,23,303
,0,0,,345,,1969-12-31 07:00:00 PM,40.73649403,,-73.99704374,,W 13 St & 6 Ave,,W 13 St & 6 Ave,3,Not In Service,False,0,102
,1,26,,346,,2018-10-17 11:01:21 AM,40.73652889,,-74.00618026,,Bank St & Hudson St,,Bank St & Hudson St,1,In Service,False,27,102
,32,1,,347,,2018-10-17 10:59:56 AM,40.728846,,-74.008591,,Greenwich St & W Houston St,,Greenwich St & W Houston St,1,In Service,False,35,102
,0,23,,349,,2018-10-17 11:03:14 AM,40.71850211,,-73.98329859,,Rivington St & Ridge St,,Rivington St & Ridge St,1,In Service,False,23,103
,0,26,,350,,2018-10-17 11:03:21 AM,40.71559509,,-73.9870295,,Clinton St & Grand St,,Clinton St & Grand St,1,In Service,False,28,103
,37,1,,351,,2018-10-17 11:02:32 AM,40.70530954,,-74.00612572,,Front St & Maiden Ln,,Front St & Maiden Ln,1,In Service,False,39,101
,1,26,,353,,2018-10-17 11:00:26 AM,40.68539567,,-73.97431458,,S Portland Ave & Hanson Pl,,S Portland Ave & Hanson Pl,1,In Service,False,27,302
,8,15,,354,,2018-10-17 11:02:33 AM,40.69363137,,-73.96223558,,Emerson Pl & Myrtle Ave,,Emerson Pl & Myrtle Ave,1,In Service,False,23,302
,10,32,,355,,2018-10-17 11:00:25 AM,40.71602118,,-73.99974372,,Bayard St & Baxter St,,Bayard St & Baxter St,1,In Service,False,43,103
,2,19,,356,,2018-10-17 11:03:21 AM,40.71622644,,-73.98261206,,Bialystoker Pl & Delancey St,,Bialystoker Pl & Delancey St,1,In Service,False,23,103
,3,23,,357,,2018-10-17 11:02:45 AM,40.73261787,,-73.99158043,,E 11 St & Broadway,,E 11 St & Broadway,1,In Service,False,27,102
,2,33,,358,,2018-10-17 11:02:13 AM,40.73291553,,-74.00711384,,Christopher St & Greenwich St,,Christopher St & Greenwich St,1,In Service,False,36,102
,36,1,,360,,2018-10-17 11:03:16 AM,40.70717936,,-74.00887308,,William St & Pine St,,William St & Pine St,1,In Service,False,39,101
,0,42,,361,,2018-10-17 11:01:53 AM,40.71605866,,-73.99190759,,Allen St & Hester St,,Allen St & Hester St,1,In Service,False,43,103
,14,43,,362,,2018-10-17 11:00:07 AM,40.75172632,,-73.98753523,,Broadway & W 37 St,,Broadway & W 37 St,1,In Service,False,57,105
,4,42,,363,,2018-10-17 11:01:41 AM,40.70834698,,-74.01713445,,West Thames St,,West Thames St,1,In Service,False,49,101
,1,26,,364,,2018-10-17 11:01:04 AM,40.68900443,,-73.96023854,,Lafayette Ave & Classon Ave,,Lafayette Ave & Classon Ave,1,In Service,False,27,302
,3,28,,365,,2018-10-17 11:01:20 AM,40.68223166,,-73.9614583,,Fulton St & Grand Ave,,Fulton St & Grand Ave,1,In Service,False,31,302
,1,31,,366,,2018-10-17 11:01:25 AM,40.693261,,-73.968896,,Clinton Ave & Myrtle Ave,,Clinton Ave & Myrtle Ave,1,In Service,False,33,302
,11,27,,368,,2018-10-17 11:02:05 AM,40.73038599,,-74.00214988,,Carmine St & 6 Ave,,Carmine St & 6 Ave,1,In Service,False,39,102
,0,35,,369,,2018-10-17 11:02:28 AM,40.73224119,,-74.00026394,,Washington Pl & 6 Ave,,Washington Pl & 6 Ave,1,In Service,False,35,102
,0,26,,372,,2018-10-17 11:02:14 AM,40.694546087246025,,-73.95801365375519,,Franklin Ave & Myrtle Ave,,Franklin Ave & Myrtle Ave,1,In Service,False,27,303
,4,14,,373,,2018-10-17 11:02:46 AM,40.69331716,,-73.95381995,,Willoughby Ave & Walworth St,,Willoughby Ave & Walworth St,1,In Service,False,19,303
,27,15,,376,,2018-10-17 11:03:13 AM,40.70862144,,-74.00722156,,John St & William St,,John St & William St,1,In Service,False,43,101
,1,39,,379,,2018-10-17 10:59:56 AM,40.749156,,-73.9916,,W 31 St & 7 Ave,,W 31 St & 7 Ave,1,In Service,False,42,105
,2,37,,380,,2018-10-17 11:02:04 AM,40.73401143,,-74.00293877,,W 4 St & 7 Ave S,,W 4 St & 7 Ave S,1,In Service,False,39,102
,25,10,,382,,2018-10-17 11:02:03 AM,40.73492695,,-73.99200509,,University Pl & E 14 St,,University Pl & E 14 St,1,In Service,False,36,102
,2,36,,383,,2018-10-17 11:02:37 AM,40.735238,,-74.000271,,Greenwich Ave & Charles St,,Greenwich Ave & Charles St,1,In Service,False,39,102
,36,6,,386,,2018-10-17 11:01:52 AM,40.71494807,,-74.00234482,,Centre St & Worth St,,Centre St & Worth St,1,In Service,False,43,101
,32,5,,387,,2018-10-17 11:02:55 AM,40.71273266,,-74.0046073,,Centre St & Chambers St,,Centre St & Chambers St,1,In Service,False,39,101
,30,4,,388,,2018-10-17 11:02:15 AM,40.749717753,,-74.002950346,,W 26 St & 10 Ave,,W 26 St & 10 Ave,1,In Service,False,35,104
,0,27,,389,,2018-10-17 11:01:09 AM,40.71044554,,-73.96525063,,Broadway & Berry St,,Broadway & Berry St,1,In Service,False,27,301
,30,0,,390,,2018-10-17 11:01:36 AM,40.69221589,,-73.9842844,,Duffield St & Willoughby St,,Duffield St & Willoughby St,1,In Service,False,31,302
,0,31,,391,,2018-10-17 11:02:22 AM,40.69760127,,-73.99344559,,Clark St & Henry St,,Clark St & Henry St,1,In Service,False,31,302
,34,0,,392,,2018-10-17 11:00:36 AM,40.695065,,-73.987167,,Jay St & Tech Pl,,Jay St & Tech Pl,1,In Service,False,35,302
,0,31,,393,,2018-10-17 11:01:20 AM,40.72299208,,-73.97995466,,E 5 St & Avenue C,,E 5 St & Avenue C,1,In Service,False,31,103
,0,30,,394,,2018-10-17 11:00:56 AM,40.72521311,,-73.97768752,,E 9 St & Avenue C,,E 9 St & Avenue C,1,In Service,False,32,103
,2,23,,396,,2018-10-17 11:03:25 AM,40.680342423,,-73.9557689392,,Lefferts Pl & Franklin Ave,,Lefferts Pl & Franklin Ave,1,In Service,False,25,303
,0,27,,397,,2018-10-17 11:00:16 AM,40.68415748,,-73.96922273,,Fulton St & Clermont Ave,,Fulton St & Clermont Ave,1,In Service,False,27,302
,23,8,,398,,2018-10-17 11:00:20 AM,40.69165183,,-73.9999786,,Atlantic Ave & Furman St,,Atlantic Ave & Furman St,1,In Service,False,31,306
,12,15,,399,,2018-10-17 11:00:20 AM,40.68851534,,-73.9647628,,Lafayette Ave & St James Pl,,Lafayette Ave & St James Pl,1,In Service,False,27,302
,0,14,,400,,2018-10-17 11:00:59 AM,40.71926081,,-73.98178024,,Pitt St & Stanton St,,Pitt St & Stanton St,1,In Service,False,15,103
,0,42,,401,,2018-10-17 11:00:31 AM,40.72019576,,-73.98997825,,Allen St & Rivington St,,Allen St & Rivington St,1,In Service,False,42,103
,2,29,,403,,2018-10-17 11:03:20 AM,40.72502876,,-73.99069656,,E 2 St & 2 Ave,,E 2 St & 2 Ave,1,In Service,False,31,103
,28,12,,405,,2018-10-17 10:59:40 AM,40.739323,,-74.008119,,Washington St & Gansevoort St,,Washington St & Gansevoort St,1,In Service,False,40,102
,2,30,,406,,2018-10-17 11:02:50 AM,40.69512845,,-73.99595065,,Hicks St & Montague St,,Hicks St & Montague St,1,In Service,False,34,302
,14,23,,407,,2018-10-17 11:02:45 AM,40.700469,,-73.991454,,Henry St & Poplar St,,Henry St & Poplar St,1,In Service,False,37,302
,2,20,,408,,2018-10-17 11:02:30 AM,40.71076228,,-73.99400398,,Market St & Cherry St,,Market St & Cherry St,1,In Service,False,23,103
,3,13,,409,,2018-10-17 11:02:26 AM,40.6906495,,-73.95643107,,DeKalb Ave & Skillman St,,DeKalb Ave & Skillman St,1,In Service,False,19,303
,0,34,,410,,2018-10-17 10:59:45 AM,40.72066442,,-73.98517977,,Suffolk St & Stanton St,,Suffolk St & Stanton St,1,In Service,False,35,103
,0,21,,411,,2018-10-17 11:00:03 AM,40.72228087,,-73.97668709,,E 6 St & Avenue D,,E 6 St & Avenue D,1,In Service,False,23,103
,1,27,,412,,2018-10-17 11:03:13 AM,40.7158155,,-73.99422366,,Forsyth St & Canal St,,Forsyth St & Canal St,1,In Service,False,29,103
,19,0,,414,,2018-10-17 11:00:50 AM,40.70281858,,-73.98765762,,Pearl St & Anchorage Pl,,Pearl St & Anchorage Pl,1,In Service,False,24,302
,36,6,,415,,2018-10-17 11:03:07 AM,40.7047177,,-74.00926027,,Pearl St & Hanover Square,,Pearl St & Hanover Square,1,In Service,False,42,101
,1,30,,416,,2018-10-17 11:02:01 AM,40.68753406,,-73.97265183,,Cumberland St & Lafayette Ave,,Cumberland St & Lafayette Ave,1,In Service,False,31,302
,13,10,,417,,2018-10-17 11:02:50 AM,40.71291224,,-74.01020234,,Barclay St & Church St,,Barclay St & Church St,1,In Service,False,23,101
,21,2,,418,,2018-10-17 11:03:00 AM,40.70224,,-73.982578,,Front St & Gold St,,Front St & Gold St,1,In Service,False,23,302
,9,13,,419,,2018-10-17 11:03:23 AM,40.69580705,,-73.97355569,,Carlton Ave & Park Ave,,Carlton Ave & Park Ave,1,In Service,False,23,302
,0,23,,420,,2018-10-17 11:00:32 AM,40.68764484,,-73.96968902,,Clermont Ave & Lafayette Ave,,Clermont Ave & Lafayette Ave,1,In Service,False,23,302
,2,17,,421,,2018-10-17 11:02:50 AM,40.69573398,,-73.97129668,,Clermont Ave & Park Ave,,Clermont Ave & Park Ave,1,In Service,False,19,302
,1,52,,422,,2018-10-17 11:02:42 AM,40.770513,,-73.988038,,W 59 St & 10 Ave,,W 59 St & 10 Ave,1,In Service,False,55,104
,1,26,,423,,2018-10-17 11:02:25 AM,40.76584941,,-73.98690506,,W 54 St & 9 Ave,,W 54 St & 9 Ave,1,In Service,False,27,104
,38,8,,427,,2018-10-17 11:01:03 AM,40.701907,,-74.013942,,Bus Slip & State St,,Bus Slip & State St,1,In Service,False,47,101
,1,28,,432,,2018-10-17 11:00:21 AM,40.72621788,,-73.98379855,,E 7 St & Avenue A,,E 7 St & Avenue A,1,In Service,False,31,103
,44,1,,435,,2018-10-17 11:03:22 AM,40.74173969,,-73.99415556,,W 21 St & 6 Ave,,W 21 St & 6 Ave,1,In Service,False,47,104
,1,26,,436,,2018-10-17 10:59:52 AM,40.68216564,,-73.95399026,,Hancock St & Bedford Ave,,Hancock St & Bedford Ave,1,In Service,False,27,303
,23,0,,437,,2018-10-17 11:03:12 AM,40.6809833854,,-73.9500479759,,Macon St & Nostrand Ave,,Macon St & Nostrand Ave,1,In Service,False,24,303
,0,41,,438,,2018-10-17 11:00:49 AM,40.72779126,,-73.98564945,,St Marks Pl & 1 Ave,,St Marks Pl & 1 Ave,1,In Service,False,41,103
,3,36,,439,,2018-10-17 11:03:16 AM,40.7262807,,-73.98978041,,E 4 St & 2 Ave,,E 4 St & 2 Ave,1,In Service,False,39,103
,30,1,,440,,2018-10-17 11:02:53 AM,40.75255434,,-73.97282625,,E 45 St & 3 Ave,,E 45 St & 3 Ave,1,In Service,False,32,106
,2,33,,441,,2018-10-17 11:02:26 AM,40.756014,,-73.967416,,E 52 St & 2 Ave,,E 52 St & 2 Ave,1,In Service,False,35,106
,25,24,,442,,2018-10-17 11:03:21 AM,40.746647,,-73.993915,,W 27 St & 7 Ave,,W 27 St & 7 Ave,3,Not In Service,False,51,105
,2,21,,443,,2018-10-17 11:02:16 AM,40.70853074,,-73.96408963,,Bedford Ave & S 9 St,,Bedford Ave & S 9 St,1,In Service,False,23,301
,0,51,,445,,2018-10-17 11:03:27 AM,40.72740794,,-73.98142006,,E 10 St & Avenue A,,E 10 St & Avenue A,1,In Service,False,52,103
,7,32,,446,,2018-10-17 11:00:54 AM,40.74487634,,-73.99529885,,W 24 St & 7 Ave,,W 24 St & 7 Ave,1,In Service,False,39,104
,2,19,,447,,2018-10-17 11:01:55 AM,40.76370739,,-73.9851615,,8 Ave & W 52 St,,8 Ave & W 52 St,1,In Service,False,23,104
,0,28,,448,,2018-10-17 11:02:11 AM,40.75660359,,-73.9979009,,W 37 St & 10 Ave,,W 37 St & 10 Ave,1,In Service,False,31,104
,0,58,,450,,2018-10-17 11:01:48 AM,40.76227205,,-73.98788205,,W 49 St & 8 Ave,,W 49 St & 8 Ave,1,In Service,False,59,104
,2,36,,453,,2018-10-17 11:03:24 AM,40.74475148,,-73.99915362,,W 22 St & 8 Ave,,W 22 St & 8 Ave,1,In Service,False,39,104
,2,33,,454,,2018-10-17 10:59:50 AM,40.75455731,,-73.96592976,,E 51 St & 1 Ave,,E 51 St & 1 Ave,1,In Service,False,35,106
,38,1,,455,,2018-10-17 11:02:07 AM,40.75001986,,-73.96905301,,1 Ave & E 44 St,,1 Ave & E 44 St,1,In Service,False,39,106
,32,3,,456,,2018-10-17 11:02:15 AM,40.7597108,,-73.97402311,,E 53 St & Madison Ave,,E 53 St & Madison Ave,1,In Service,False,35,105
,2,34,,457,,2018-10-17 11:01:01 AM,40.76695317,,-73.98169333,,Broadway & W 58 St,,Broadway & W 58 St,1,In Service,False,39,105
,14,16,,458,,2018-10-17 11:01:24 AM,40.751396,,-74.005226,,11 Ave & W 27 St,,11 Ave & W 27 St,1,In Service,False,31,104
,48,0,,459,,2018-10-17 11:02:05 AM,40.746745,,-74.007756,,W 20 St & 11 Ave,,W 20 St & 11 Ave,1,In Service,False,49,104
,0,21,,460,,2018-10-17 11:00:17 AM,40.71285887,,-73.96590294,,S 4 St & Wythe Ave,,S 4 St & Wythe Ave,1,In Service,False,23,301
,3,36,,461,,2018-10-17 11:02:33 AM,40.73587678,,-73.98205027,,E 20 St & 2 Ave,,E 20 St & 2 Ave,1,In Service,False,39,106
,4,43,,462,,2018-10-17 11:00:21 AM,40.74691959,,-74.00451887,,W 22 St & 10 Ave,,W 22 St & 10 Ave,1,In Service,False,47,104
,5,26,,465,,2018-10-17 11:00:54 AM,40.75513557,,-73.98658032,,Broadway & W 41 St,,Broadway & W 41 St,1,In Service,False,39,105
,31,3,,466,,2018-10-17 11:02:42 AM,40.74395411,,-73.99144871,,W 25 St & 6 Ave,,W 25 St & 6 Ave,1,In Service,False,35,105
,34,0,,467,,2018-10-17 11:02:06 AM,40.68312489,,-73.97895137,,Dean St & 4 Ave,,Dean St & 4 Ave,1,In Service,False,34,306
,1,46,,468,,2018-10-17 11:00:11 AM,40.7652654,,-73.98192338,,Broadway & W 56 St,,Broadway & W 56 St,1,In Service,False,49,105
,6,50,,469,,2018-10-17 11:01:33 AM,40.76344058,,-73.98268129,,Broadway & W 53 St,,Broadway & W 53 St,1,In Service,False,57,105
,0,37,,470,,2018-10-17 11:02:25 AM,40.74345335,,-74.00004031,,W 20 St & 8 Ave,,W 20 St & 8 Ave,1,In Service,False,38,104
,3,25,,471,,2018-10-17 11:03:21 AM,40.71286844,,-73.95698119,,Grand St & Havemeyer St,,Grand St & Havemeyer St,1,In Service,False,31,301
,25,16,,472,,2018-10-17 11:00:46 AM,40.7457121,,-73.98194829,,E 32 St & Park Ave,,E 32 St & Park Ave,1,In Service,False,41,105
,0,38,,473,,2018-10-17 11:00:40 AM,40.72110063,,-73.9919254,,Rivington St & Chrystie St,,Rivington St & Chrystie St,1,In Service,False,38,103
,0,0,,474,,2018-09-06 11:11:19 AM,40.7451677,,-73.98683077,,5 Ave & E 29 St,,5 Ave & E 29 St,3,Not In Service,False,0,105
,0,47,,476,,2018-10-17 11:03:13 AM,40.74394314,,-73.97966069,,E 31 St & 3 Ave,,E 31 St & 3 Ave,1,In Service,False,47,106
,0,58,,477,,2018-10-17 11:02:19 AM,40.75640548,,-73.9900262,,W 41 St & 8 Ave,,W 41 St & 8 Ave,1,In Service,False,59,105
,0,30,,478,,2018-10-17 11:00:06 AM,40.76030096,,-73.99884222,,11 Ave & W 41 St,,11 Ave & W 41 St,1,In Service,False,31,104
,1,30,,479,,2018-10-17 11:00:54 AM,40.76019252,,-73.9912551,,9 Ave & W 45 St,,9 Ave & W 45 St,1,In Service,False,31,104
,1,24,,480,,2018-10-17 11:01:58 AM,40.76669671,,-73.99061728,,W 53 St & 10 Ave,,W 53 St & 10 Ave,1,In Service,False,27,104
,2,22,,481,,2018-10-17 11:03:12 AM,40.71260486,,-73.96264403,,S 3 St & Bedford Ave,,S 3 St & Bedford Ave,1,In Service,False,25,301
,1,36,,482,,2018-10-17 11:02:46 AM,40.73935542,,-73.99931783,,W 15 St & 7 Ave,,W 15 St & 7 Ave,1,In Service,False,39,104
,1,32,,483,,2018-10-17 11:00:35 AM,40.73223272,,-73.98889957,,E 12 St & 3 Ave,,E 12 St & 3 Ave,1,In Service,False,35,103
,35,4,,484,,2018-10-17 11:03:27 AM,40.75500254,,-73.98014437,,W 44 St & 5 Ave,,W 44 St & 5 Ave,1,In Service,False,44,105
,15,24,,485,,2018-10-17 11:00:04 AM,40.75038009,,-73.98338988,,W 37 St & 5 Ave,,W 37 St & 5 Ave,1,In Service,False,39,105
,26,11,,486,,2018-10-17 11:02:35 AM,40.7462009,,-73.98855723,,Broadway & W 29 St,,Broadway & W 29 St,1,In Service,False,39,105
,13,20,,487,,2018-10-17 10:59:58 AM,40.73314259,,-73.97573881,,E 20 St & FDR Drive,,E 20 St & FDR Drive,1,In Service,False,34,106
,0,57,,490,,2018-10-17 11:01:37 AM,40.751551,,-73.993934,,8 Ave & W 33 St,,8 Ave & W 33 St,1,In Service,False,59,104
,3,58,,492,,2018-10-17 11:00:25 AM,40.75019995,,-73.99093085,,W 33 St & 7 Ave,,W 33 St & 7 Ave,1,In Service,False,61,105
,33,1,,493,,2018-10-17 11:02:44 AM,40.7568001,,-73.98291153,,W 45 St & 6 Ave,,W 45 St & 6 Ave,1,In Service,False,34,105
,1,34,,494,,2018-10-17 11:01:44 AM,40.74734825,,-73.99723551,,W 26 St & 8 Ave,,W 26 St & 8 Ave,1,In Service,False,35,104
,0,24,,495,,2018-10-17 11:01:49 AM,40.76269882,,-73.99301222,,W 47 St & 10 Ave,,W 47 St & 10 Ave,1,In Service,False,25,104
,38,9,,496,,2018-10-17 11:02:20 AM,40.73726186,,-73.99238967,,E 16 St & 5 Ave,,E 16 St & 5 Ave,1,In Service,False,47,105
,35,21,,497,,2018-10-17 11:02:30 AM,40.73704984,,-73.99009296,,E 17 St & Broadway,,E 17 St & Broadway,1,In Service,False,59,105
,2,27,,498,,2018-10-17 11:02:47 AM,40.74854862,,-73.98808416,,Broadway & W 32 St,,Broadway & W 32 St,1,In Service,False,30,105
,1,34,,499,,2018-10-17 11:02:09 AM,40.76915505,,-73.98191841,,Broadway & W 60 St,,Broadway & W 60 St,1,In Service,False,36,107
,44,7,,500,,2018-10-17 11:03:10 AM,40.76228826,,-73.98336183,,Broadway & W 51 St,,Broadway & W 51 St,1,In Service,False,52,105
,3,38,,501,,2018-10-17 11:00:55 AM,40.744219,,-73.97121214,,FDR Drive & E 35 St,,FDR Drive & E 35 St,1,In Service,False,43,106
,2,27,,502,,2018-10-17 11:02:01 AM,40.714215,,-73.981346,,Henry St & Grand St,,Henry St & Grand St,1,In Service,False,30,103
,26,2,,503,,2018-10-17 11:03:09 AM,40.73827428,,-73.98751968,,E 20 St & Park Ave,,E 20 St & Park Ave,1,In Service,False,29,105
,0,44,,504,,2018-10-17 11:02:42 AM,40.73221853,,-73.98165557,,1 Ave & E 16 St,,1 Ave & E 16 St,1,In Service,False,44,106
,4,31,,505,,2018-10-17 11:00:00 AM,40.74901271,,-73.98848395,,6 Ave & W 33 St,,6 Ave & W 33 St,1,In Service,False,36,105
,4,41,,507,,2018-10-17 10:59:31 AM,40.73912601,,-73.97973776,,E 25 St & 2 Ave,,E 25 St & 2 Ave,1,In Service,False,45,106
,2,19,,508,,2018-10-17 11:00:03 AM,40.76341379,,-73.99667444,,W 46 St & 11 Ave,,W 46 St & 11 Ave,1,In Service,False,24,104
,4,31,,509,,2018-10-17 11:03:03 AM,40.7454973,,-74.00197139,,9 Ave & W 22 St,,9 Ave & W 22 St,1,In Service,False,36,104
,0,25,,513,,2018-10-17 11:02:10 AM,40.768254,,-73.988639,,W 56 St & 10 Ave,,W 56 St & 10 Ave,1,In Service,False,27,104
,41,9,,514,,2018-10-17 11:01:23 AM,40.76087502,,-74.00277668,,12 Ave & W 40 St,,12 Ave & W 40 St,1,In Service,False,52,104
,2,30,,515,,2018-10-17 11:02:56 AM,40.76009437,,-73.99461843,,W 43 St & 10 Ave,,W 43 St & 10 Ave,1,In Service,False,35,104
,18,13,,516,,2018-10-17 11:00:55 AM,40.75206862,,-73.96784384,,E 47 St & 1 Ave,,E 47 St & 1 Ave,1,In Service,False,31,106
,12,46,,517,,2018-10-17 11:03:15 AM,40.751581,,-73.97791,,Pershing Square South,,Pershing Square South,1,In Service,False,59,105
,8,29,,518,,2018-10-17 11:00:17 AM,40.74780373,,-73.9734419,,E 39 St & 2 Ave,,E 39 St & 2 Ave,1,In Service,False,39,106
,1,59,,519,,2018-10-17 11:03:20 AM,40.751873,,-73.977706,,Pershing Square North,,Pershing Square North,1,In Service,False,61,105
,49,2,,522,,2018-10-17 11:02:44 AM,40.75714758,,-73.97207836,,E 51 St & Lexington Ave,,E 51 St & Lexington Ave,1,In Service,False,51,105
,4,46,,523,,2018-10-17 11:01:32 AM,40.75466591,,-73.99138152,,W 38 St & 8 Ave,,W 38 St & 8 Ave,1,In Service,False,51,105
,54,2,,524,,2018-10-17 10:59:34 AM,40.75527307,,-73.98316936,,W 43 St & 6 Ave,,W 43 St & 6 Ave,1,In Service,False,57,105
,12,26,,525,,2018-10-17 11:00:11 AM,40.75594159,,-74.0021163,,W 34 St & 11 Ave,,W 34 St & 11 Ave,1,In Service,False,39,104
,16,22,,526,,2018-10-17 11:03:06 AM,40.74765947,,-73.98490707,,E 33 St & 5 Ave,,E 33 St & 5 Ave,1,In Service,False,39,105
,5,33,,528,,2018-10-17 11:02:50 AM,40.74290902,,-73.97706058,,2 Ave & E 31 St,,2 Ave & E 31 St,1,In Service,False,39,106
,0,38,,529,,2018-10-17 11:00:04 AM,40.7575699,,-73.99098507,,W 42 St & 8 Ave,,W 42 St & 8 Ave,1,In Service,False,41,104
,4,20,,530,,2018-10-17 11:02:39 AM,40.771522,,-73.990541,,11 Ave & W 59 St,,11 Ave & W 59 St,1,In Service,False,24,104
,0,38,,531,,2018-10-17 11:01:38 AM,40.71893904,,-73.99266288,,Forsyth St & Broome St,,Forsyth St & Broome St,1,In Service,False,39,103
,14,27,,532,,2018-10-17 11:01:24 AM,40.710451,,-73.960876,,S 5 Pl & S 5 St,,S 5 Pl & S 5 St,1,In Service,False,43,301
,12,30,,533,,2018-10-17 11:01:15 AM,40.75299641,,-73.98721619,,Broadway & W 38 St,,Broadway & W 38 St,1,In Service,False,46,105
,29,0,,534,,2018-10-17 11:02:43 AM,40.70255065,,-74.0127234,,Water - Whitehall Plaza,,Water - Whitehall Plaza,1,In Service,False,31,101
,4,21,,536,,2018-10-17 11:03:28 AM,40.74144387,,-73.97536082,,1 Ave & E 30 St,,1 Ave & E 30 St,1,In Service,False,29,106
,9,21,,539,,2018-10-17 11:02:38 AM,40.71534825,,-73.96024116,,Metropolitan Ave & Bedford Ave,,Metropolitan Ave & Bedford Ave,1,In Service,False,31,301
,2,27,,540,,2018-10-17 10:59:51 AM,40.74311555376486,,-73.98215353488922,,Lexington Ave & E 29 St,,Lexington Ave & E 29 St,1,In Service,False,30,105
,0,27,,545,,2018-10-17 10:59:54 AM,40.736502,,-73.97809472,,E 23 St & 1 Ave,,E 23 St & 1 Ave,1,In Service,False,27,106
,16,21,,546,,2018-10-17 10:59:43 AM,40.74444921,,-73.98303529,,E 30 St & Park Ave S,,E 30 St & Park Ave S,1,In Service,False,38,105
,24,0,,2000,,2018-10-17 10:59:08 AM,40.70255088,,-73.98940236,,Front St & Washington St,,Front St & Washington St,1,In Service,False,30,302
,0,0,,2001,,1969-12-31 07:00:00 PM,40.699773,,-73.979927,,Sands St & Navy St,,Sands St & Navy St,3,Not In Service,False,0,302
,9,16,,2002,,2018-10-17 11:00:55 AM,40.716887,,-73.963198,,Wythe Ave & Metropolitan Ave,,Wythe Ave & Metropolitan Ave,1,In Service,False,27,301
,1,38,,2003,,2018-10-17 11:00:55 AM,40.733812191966315,,-73.98054420948029,,1 Ave & E 18 St,,1 Ave & E 18 St,1,In Service,False,39,106
,9,3,,2005,,2018-10-17 11:01:29 AM,40.70531194,,-73.97100056,,Railroad Ave & Kay Ave,,Railroad Ave & Kay Ave,1,In Service,False,12,302
,43,6,,2006,,2018-10-17 10:59:52 AM,40.76590936,,-73.97634151,,Central Park S & 6 Ave,,Central Park S & 6 Ave,1,In Service,False,49,164
,11,13,,2008,,2018-10-17 11:03:27 AM,40.70569254,,-74.01677685,,Little West St & 1 Pl,,Little West St & 1 Pl,1,In Service,False,24,101
,0,35,,2009,,2018-10-17 11:00:17 AM,40.71117444,,-73.99682619,,Catherine St & Monroe St,,Catherine St & Monroe St,1,In Service,False,35,103
,35,0,,2010,,2018-10-17 11:03:09 AM,40.72165481,,-74.00234737,,Grand St & Greene St,,Grand St & Greene St,1,In Service,False,39,102
,1,34,,2012,,2018-10-17 11:01:48 AM,40.739445,,-73.976806,,E 27 St & 1 Ave,,E 27 St & 1 Ave,1,In Service,False,36,106
,0,43,,2021,,2018-10-17 11:00:53 AM,40.75929124,,-73.98859651,,W 45 St & 8 Ave,,W 45 St & 8 Ave,1,In Service,False,43,104
,3,30,,2022,,2018-10-17 11:02:40 AM,40.759107,,-73.959223,,E 60 St & York Ave,,E 60 St & York Ave,1,In Service,False,33,108
,25,11,,2023,,2018-10-17 11:03:26 AM,40.75968085,,-73.97031366,,E 55 St & Lexington Ave,,E 55 St & Lexington Ave,1,In Service,False,36,105
,17,5,,3002,,2018-10-17 11:01:40 AM,40.711512,,-74.015756,,South End Ave & Liberty St,,South End Ave & Liberty St,1,In Service,False,25,101
,6,41,,3016,,2018-10-17 11:03:29 AM,40.72036775298455,,-73.96165072917938,,Kent Ave & N 7 St,,Kent Ave & N 7 St,1,In Service,False,47,301
,1,21,,3041,,2018-10-17 11:02:41 AM,40.67890679,,-73.94142771,,Kingston Ave & Herkimer St,,Kingston Ave & Herkimer St,1,In Service,False,24,303
,5,11,,3042,,2018-10-17 11:03:27 AM,40.6794268,,-73.9298911,,Fulton St & Utica Ave,,Fulton St & Utica Ave,1,In Service,False,19,303
,0,18,,3043,,2018-10-17 11:02:08 AM,40.6814598,,-73.934903,,Lewis Ave & Decatur St,,Lewis Ave & Decatur St,1,In Service,False,19,303
,1,25,,3044,,2018-10-17 11:03:21 AM,40.6800105,,-73.938475,,Albany Ave & Fulton St,,Albany Ave & Fulton St,1,In Service,False,27,303
,7,12,,3046,,2018-10-17 11:01:08 AM,40.682601,,-73.938037,,Marcus Garvey Blvd & Macon St,,Marcus Garvey Blvd & Macon St,1,In Service,False,19,303
,5,14,,3047,,2018-10-17 11:02:12 AM,40.6823687,,-73.944118,,Halsey St & Tompkins Ave,,Halsey St & Tompkins Ave,1,In Service,False,21,303
,0,19,,3048,,2018-10-17 11:00:13 AM,40.68402,,-73.94977,,Putnam Ave & Nostrand Ave,,Putnam Ave & Nostrand Ave,1,In Service,False,19,303
,0,17,,3049,,2018-10-17 11:02:52 AM,40.68488,,-73.96304,,Cambridge Pl & Gates Ave,,Cambridge Pl & Gates Ave,1,In Service,False,18,302
,0,21,,3050,,2018-10-17 11:01:06 AM,40.6851532,,-73.94111,,Putnam Ave & Throop Ave,,Putnam Ave & Throop Ave,1,In Service,False,21,303
,2,21,,3052,,2018-10-17 11:01:49 AM,40.686312,,-73.935775,,Lewis Ave & Madison St,,Lewis Ave & Madison St,1,In Service,False,23,303
,0,22,,3053,,2018-10-17 11:01:32 AM,40.6900815,,-73.947915,,Marcy Ave & Lafayette Ave,,Marcy Ave & Lafayette Ave,1,In Service,False,23,303
,0,18,,3054,,2018-10-17 10:59:38 AM,40.6894932,,-73.942061,,Greene Ave & Throop Ave,,Greene Ave & Throop Ave,1,In Service,False,19,303
,4,17,,3055,,2018-10-17 11:01:03 AM,40.6883337,,-73.950916,,Greene Ave & Nostrand Ave,,Greene Ave & Nostrand Ave,1,In Service,False,23,303
,5,17,,3056,,2018-10-17 11:03:20 AM,40.69072549,,-73.95133465,,Kosciuszko St & Nostrand Ave,,Kosciuszko St & Nostrand Ave,1,In Service,False,23,303
,0,18,,3057,,2018-10-17 11:00:51 AM,40.69128258,,-73.9452416,,Kosciuszko St & Tompkins Ave,,Kosciuszko St & Tompkins Ave,1,In Service,False,18,303
,3,20,,3058,,2018-10-17 11:02:00 AM,40.69237074,,-73.93705428,,Lewis Ave & Kosciuszko St,,Lewis Ave & Kosciuszko St,1,In Service,False,24,303
,6,13,,3059,,2018-10-17 11:02:33 AM,40.6933982,,-73.939877,,Pulaski St & Marcus Garvey Blvd,,Pulaski St & Marcus Garvey Blvd,1,In Service,False,19,303
,7,12,,3060,,2018-10-17 11:03:28 AM,40.69425403,,-73.94626915,,Willoughby Ave & Tompkins Ave,,Willoughby Ave & Tompkins Ave,1,In Service,False,19,303
,7,14,,3061,,2018-10-17 11:00:14 AM,40.69622937,,-73.94371094,,Throop Ave & Myrtle Ave,,Throop Ave & Myrtle Ave,1,In Service,False,21,303
,15,8,,3062,,2018-10-17 11:03:11 AM,40.69539817,,-73.94954908,,Myrtle Ave & Marcy Ave,,Myrtle Ave & Marcy Ave,1,In Service,False,23,303
,16,4,,3063,,2018-10-17 11:00:16 AM,40.69527008,,-73.95238108,,Nostrand Ave & Myrtle Ave,,Nostrand Ave & Myrtle Ave,1,In Service,False,20,303
,16,6,,3064,,2018-10-17 11:02:19 AM,40.69681963,,-73.93756926,,Myrtle Ave & Lewis Ave,,Myrtle Ave & Lewis Ave,1,In Service,False,23,303
,10,17,,3065,,2018-10-17 11:01:26 AM,40.70029511,,-73.95032283,,Union Ave & Wallabout St,,Union Ave & Wallabout St,1,In Service,False,27,301
,9,10,,3066,,2018-10-17 11:02:16 AM,40.69957608,,-73.94708417,,Tompkins Ave & Hopkins St,,Tompkins Ave & Hopkins St,1,In Service,False,19,303
,3,24,,3067,,2018-10-17 11:00:16 AM,40.7016657,,-73.9437303,,Broadway & Whipple St,,Broadway & Whipple St,1,In Service,False,27,301
,10,14,,3068,,2018-10-17 11:00:41 AM,40.7031724,,-73.940636,,Humboldt St & Varet St,,Humboldt St & Varet St,1,In Service,False,24,301
,5,20,,3069,,2018-10-17 11:01:03 AM,40.70411791,,-73.94818595,,Lorimer St & Broadway,,Lorimer St & Broadway,1,In Service,False,25,301
,0,22,,3070,,2018-10-17 11:03:27 AM,40.70510918,,-73.94407279,,McKibbin St & Manhattan Ave,,McKibbin St & Manhattan Ave,1,In Service,False,23,301
,0,18,,3071,,2018-10-17 11:03:21 AM,40.70538077,,-73.94976519,,Boerum St & Broadway,,Boerum St & Broadway,1,In Service,False,19,301
,0,24,,3072,,2018-10-17 11:00:12 AM,40.70583339,,-73.94644578,,Leonard St & Boerum St,,Leonard St & Boerum St,1,In Service,False,24,301
,0,0,,3073,,1969-12-31 07:00:00 PM,40.70691254,,-73.95441667,,Division Ave & Hooper St,,Division Ave & Hooper St,3,Not In Service,False,0,301
,2,29,,3074,,2018-10-17 11:02:11 AM,40.70767788,,-73.94016171,,Montrose Ave & Bushwick Ave,,Montrose Ave & Bushwick Ave,1,In Service,False,31,301
,2,30,,3075,,2018-10-17 11:00:28 AM,40.70708701,,-73.95796783,,Division Ave & Marcy Ave,,Division Ave & Marcy Ave,1,In Service,False,33,301
,1,23,,3076,,2018-10-17 11:01:28 AM,40.70870368,,-73.9448625,,Scholes St & Manhattan Ave,,Scholes St & Manhattan Ave,1,In Service,False,24,301
,2,31,,3077,,2018-10-17 11:02:42 AM,40.70877084,,-73.95095259,,Stagg St & Union Ave,,Stagg St & Union Ave,1,In Service,False,33,301
,15,12,,3078,,2018-10-17 11:02:53 AM,40.70924826276157,,-73.96063148975372,,Broadway & Roebling St,,Broadway & Roebling St,1,In Service,False,27,301
,3,16,,3080,,2018-10-17 10:59:39 AM,40.70934,,-73.95608,,S 4 St & Rodney St,,S 4 St & Rodney St,1,In Service,False,21,301
,0,22,,3081,,2018-10-17 11:02:33 AM,40.711863,,-73.944024,,Graham Ave & Grand St,,Graham Ave & Grand St,1,In Service,False,23,301
,1,24,,3082,,2018-10-17 11:01:05 AM,40.71167351,,-73.95141312,,Hope St & Union Ave,,Hope St & Union Ave,1,In Service,False,25,301
,2,28,,3083,,2018-10-17 11:01:20 AM,40.71247661,,-73.94100005,,Bushwick Ave & Powers St,,Bushwick Ave & Powers St,1,In Service,False,30,301
,0,0,,3085,,2018-08-03 11:51:56 AM,40.71469,,-73.95739,,Roebling St & N 4 St,,Roebling St & N 4 St,3,Not In Service,False,0,301
,1,20,,3086,,2018-10-17 11:00:16 AM,40.715143,,-73.944507,,Graham Ave & Conselyea St,,Graham Ave & Conselyea St,1,In Service,False,25,301
,1,29,,3087,,2018-10-17 11:00:05 AM,40.71413311,,-73.95234386,,Metropolitan Ave & Meeker Ave,,Metropolitan Ave & Meeker Ave,1,In Service,False,30,301
,1,18,,3088,,2018-10-17 11:00:12 AM,40.7160751,,-73.952029,,Union Ave & Jackson St,,Union Ave & Jackson St,1,In Service,False,19,301
,21,9,,3090,,2018-10-17 11:02:05 AM,40.71774592,,-73.95600096,,N 8 St & Driggs Ave,,N 8 St & Driggs Ave,1,In Service,False,31,301
,0,30,,3091,,2018-10-17 11:01:41 AM,40.71764,,-73.94882,,Frost St & Meeker St,,Frost St & Meeker St,1,In Service,False,31,301
,20,7,,3092,,2018-10-17 11:00:50 AM,40.7190095,,-73.95852515,,Berry St & N 8 St,,Berry St & N 8 St,1,In Service,False,27,301
,17,10,,3093,,2018-10-17 11:02:35 AM,40.71745169,,-73.95850939,,N 6 St & Bedford Ave,,N 6 St & Bedford Ave,1,In Service,False,28,301
,1,17,,3094,,2018-10-17 11:01:13 AM,40.7169811,,-73.94485918,,Graham Ave & Withers St,,Graham Ave & Withers St,1,In Service,False,18,301
,1,21,,3095,,2018-10-17 11:00:45 AM,40.71929301,,-73.94500379,,Graham Ave & Herbert St,,Graham Ave & Herbert St,1,In Service,False,23,301
,0,39,,3096,,2018-10-17 11:01:42 AM,40.71924,,-73.95242,,Union Ave & N 12 St,,Union Ave & N 12 St,1,In Service,False,39,301
,0,39,,3100,,2018-10-17 11:02:38 AM,40.724812564400175,,-73.94752621650696,,Nassau Ave & Newell St,,Nassau Ave & Newell St,1,In Service,False,39,301
,2,25,,3101,,2018-10-17 11:03:25 AM,40.72079821,,-73.95484712,,N 12 St & Bedford Ave,,N 12 St & Bedford Ave,1,In Service,False,27,301
,0,27,,3102,,2018-10-17 11:01:34 AM,40.72179134,,-73.9504154,,Driggs Ave & Lorimer St,,Driggs Ave & Lorimer St,1,In Service,False,27,301
,0,24,,3105,,2018-10-17 11:00:30 AM,40.724055,,-73.955736,,N 15 St & Wythe Ave,,N 15 St & Wythe Ave,1,In Service,False,24,301
,0,18,,3106,,2018-10-17 11:03:20 AM,40.72325,,-73.94308,,Driggs Ave & N Henry St,,Driggs Ave & N Henry St,1,In Service,False,19,301
,1,38,,3107,,2018-10-17 10:59:34 AM,40.72311651,,-73.95212324,,Bedford Ave & Nassau Ave,,Bedford Ave & Nassau Ave,1,In Service,False,39,301
,0,23,,3108,,2018-10-17 11:00:10 AM,40.72557,,-73.94434,,Nassau Ave & Russell St,,Nassau Ave & Russell St,1,In Service,False,24,301
,0,29,,3109,,2018-10-17 11:01:16 AM,40.72606,,-73.95621,,Banker St & Meserole Ave,,Banker St & Meserole Ave,1,In Service,False,31,301
,0,27,,3110,,2018-10-17 11:01:59 AM,40.72708584,,-73.95299117,,Meserole Ave & Manhattan Ave,,Meserole Ave & Manhattan Ave,1,In Service,False,27,301
,19,14,,3112,,2018-10-17 11:03:15 AM,40.72906,,-73.95779,,Milton St & Franklin St,,Milton St & Franklin St,1,In Service,False,33,301
,0,25,,3113,,2018-10-17 11:03:08 AM,40.73026,,-73.95394,,Greenpoint Ave & Manhattan Ave,,Greenpoint Ave & Manhattan Ave,1,In Service,False,26,301
,0,34,,3115,,2018-10-17 11:00:12 AM,40.73232194,,-73.9550858,,India St & Manhattan Ave,,India St & Manhattan Ave,1,In Service,False,34,301
,3,30,,3116,,2018-10-17 10:59:41 AM,40.73266,,-73.95826,,Huron St & Franklin St,,Huron St & Franklin St,1,In Service,False,35,301
,1,25,,3117,,2018-10-17 11:03:07 AM,40.73564,,-73.95866,,Franklin St & Dupont St,,Franklin St & Dupont St,1,In Service,False,27,301
,2,28,,3118,,2018-10-17 11:00:14 AM,40.73555,,-73.95284,,McGuinness Blvd & Eagle St,,McGuinness Blvd & Eagle St,1,In Service,False,30,301
,38,7,,3119,,2018-10-17 11:00:38 AM,40.74232744,,-73.95411749,,Vernon Blvd & 50 Ave,,Vernon Blvd & 50 Ave,1,In Service,False,45,402
,6,14,,3120,,2018-10-17 11:02:41 AM,40.74161,,-73.96044,,Center Blvd & Borden Ave,,Center Blvd & Borden Ave,1,In Service,False,20,402
,4,23,,3121,,2018-10-17 11:03:06 AM,40.74524768,,-73.94733276,,Jackson Ave & 46 Rd,,Jackson Ave & 46 Rd,1,In Service,False,27,402
,4,27,,3122,,2018-10-17 11:03:02 AM,40.744363287066875,,-73.9558732509613,,48 Ave & 5 St,,48 Ave & 5 St,1,In Service,False,31,402
,7,20,,3123,,2018-10-17 11:01:53 AM,40.74469738,,-73.93540375,,31 St & Thomson Ave,,31 St & Thomson Ave,1,In Service,False,27,402
,8,19,,3124,,2018-10-17 11:00:47 AM,40.74731,,-73.95451,,46 Ave & 5 St,,46 Ave & 5 St,1,In Service,False,27,402
,10,13,,3125,,2018-10-17 11:01:05 AM,40.74708586,,-73.94977234,,45 Rd & 11 St,,45 Rd & 11 St,1,In Service,False,23,402
,13,21,,3126,,2018-10-17 11:00:14 AM,40.74718234,,-73.9432635,,44 Dr & Jackson Ave,,44 Dr & Jackson Ave,1,In Service,False,34,402
,3,32,,3127,,2018-10-17 11:01:52 AM,40.74966,,-73.9521,,9 St & 44 Rd,,9 St & 44 Rd,1,In Service,False,35,402
,4,19,,3128,,2018-10-17 11:00:43 AM,40.75052534,,-73.94594845,,21 St & 43 Ave,,21 St & 43 Ave,1,In Service,False,23,402
,19,12,,3129,,2018-10-17 11:03:16 AM,40.75110165,,-73.94073717,,Queens Plaza North & Crescent St,,Queens Plaza North & Crescent St,1,In Service,False,31,402
,19,12,,3130,,2018-10-17 11:00:56 AM,40.75325964,,-73.94335788,,21 St & Queens Plaza North,,21 St & Queens Plaza North,1,In Service,False,31,401
,3,27,,3131,,2018-10-17 11:02:39 AM,40.76712840349542,,-73.96224617958069,,E 68 St & 3 Ave,,E 68 St & 3 Ave,1,In Service,False,31,108
,33,1,,3132,,2018-10-17 11:01:31 AM,40.76350532,,-73.97109243,,E 59 St & Madison Ave,,E 59 St & Madison Ave,1,In Service,False,35,108
,6,45,,3134,,2018-10-17 11:00:04 AM,40.76312584,,-73.96526895,,3 Ave & E 62 St,,3 Ave & E 62 St,1,In Service,False,51,108
,0,41,,3135,,2018-10-17 11:00:19 AM,40.77112927,,-73.95772297,,E 75 St & 3 Ave,,E 75 St & 3 Ave,1,In Service,False,41,108
,27,18,,3136,,2018-10-17 11:01:17 AM,40.766368,,-73.971518,,5 Ave & E 63 St,,5 Ave & E 63 St,1,In Service,False,47,164
,2,29,,3137,,2018-10-17 11:03:04 AM,40.77282817,,-73.96685276,,5 Ave & E 73 St,,5 Ave & E 73 St,1,In Service,False,31,164
,0,40,,3139,,2018-10-17 11:03:18 AM,40.77118287540658,,-73.96409422159195,,E 72 St & Park Ave,,E 72 St & Park Ave,1,In Service,False,43,108
,0,53,,3140,,2018-10-17 11:01:35 AM,40.77140426,,-73.9535166,,1 Ave & E 78 St,,1 Ave & E 78 St,1,In Service,False,55,108
,23,35,,3141,,2018-10-17 11:00:34 AM,40.76500525,,-73.95818491,,1 Ave & E 68 St,,1 Ave & E 68 St,1,In Service,False,59,108
,5,35,,3142,,2018-10-17 11:01:38 AM,40.7612274,,-73.96094022,,1 Ave & E 62 St,,1 Ave & E 62 St,1,In Service,False,41,108
,5,42,,3143,,2018-10-17 11:01:00 AM,40.77632142182271,,-73.96427392959595,,5 Ave & E 78 St,,5 Ave & E 78 St,1,In Service,False,47,164
,1,45,,3144,,2018-10-17 11:03:24 AM,40.77677702,,-73.9590097,,E 81 St & Park Ave,,E 81 St & Park Ave,1,In Service,False,46,108
,1,44,,3145,,2018-10-17 11:00:38 AM,40.77862688,,-73.95772073,,E 84 St & Park Ave,,E 84 St & Park Ave,1,In Service,False,45,108
,1,46,,3146,,2018-10-17 11:00:08 AM,40.77573034,,-73.9567526,,E 81 St & 3 Ave,,E 81 St & 3 Ave,1,In Service,False,47,108
,1,38,,3147,,2018-10-17 11:02:24 AM,40.77801203,,-73.95407149,,E 85 St & 3 Ave,,E 85 St & 3 Ave,1,In Service,False,39,108
,0,29,,3148,,2018-10-17 11:01:38 AM,40.77565541,,-73.95068615,,E 84 St & 1 Ave,,E 84 St & 1 Ave,1,In Service,False,31,108
,0,47,,3150,,2018-10-17 11:03:27 AM,40.77536905,,-73.94803392,,E 85 St & York Ave,,E 85 St & York Ave,1,In Service,False,47,108
,1,42,,3151,,2018-10-17 11:02:51 AM,40.7728384,,-73.94989233,,E 81 St & York Ave,,E 81 St & York Ave,1,In Service,False,43,108
,0,42,,3152,,2018-10-17 11:00:17 AM,40.76873687,,-73.96119945,,3 Ave & E 71 St,,3 Ave & E 71 St,1,In Service,False,42,108
,0,37,,3153,,2018-10-17 11:03:02 AM,40.76817546742245,,-73.95910263061523,,E 71 St & 2 Ave,,E 71 St & 2 Ave,1,In Service,False,37,108
,0,30,,3154,,2018-10-17 11:02:39 AM,40.77314236,,-73.95856158,,E 77 St & 3 Ave,,E 77 St & 3 Ave,1,In Service,False,31,108
,8,30,,3155,,2018-10-17 11:01:16 AM,40.76440023,,-73.96648977,,Lexington Ave & E 63 St,,Lexington Ave & E 63 St,1,In Service,False,39,108
,0,36,,3156,,2018-10-17 11:01:37 AM,40.76663814,,-73.95348296,,E 72 St & York Ave,,E 72 St & York Ave,1,In Service,False,37,108
,0,26,,3157,,2018-10-17 11:01:48 AM,40.77518615,,-73.94446054,,East End Ave & E 86 St,,East End Ave & E 86 St,1,In Service,False,27,108
,4,27,,3158,,2018-10-17 11:01:16 AM,40.77163851,,-73.98261428,,W 63 St & Broadway,,W 63 St & Broadway,1,In Service,False,31,107
,1,28,,3159,,2018-10-17 11:02:35 AM,40.77492513,,-73.98266566,,W 67 St & Broadway,,W 67 St & Broadway,1,In Service,False,31,107
,0,38,,3160,,2018-10-17 11:02:54 AM,40.77896784,,-73.97374737,,Central Park West & W 76 St,,Central Park West & W 76 St,1,In Service,False,39,164
,0,58,,3161,,2018-10-17 11:03:08 AM,40.7801839724239,,-73.97728532552719,,W 76 St & Columbus Ave,,W 76 St & Columbus Ave,1,In Service,False,59,107
,0,39,,3162,,2018-10-17 11:00:13 AM,40.78339981,,-73.98093133,,W 78 St & Broadway,,W 78 St & Broadway,1,In Service,False,39,107
,4,38,,3163,,2018-10-17 10:59:53 AM,40.7734066,,-73.97782542,,Central Park West & W 68 St,,Central Park West & W 68 St,1,In Service,False,43,164
,0,66,,3164,,2018-10-17 11:00:51 AM,40.7770575,,-73.97898475,,Columbus Ave & W 72 St,,Columbus Ave & W 72 St,1,In Service,False,67,107
,1,50,,3165,,2018-10-17 11:02:33 AM,40.77579376683666,,-73.9762057363987,,Central Park West & W 72 St,,Central Park West & W 72 St,1,In Service,False,51,164
,0,40,,3166,,2018-10-17 11:02:59 AM,40.78057799010334,,-73.98562431335449,,Riverside Dr & W 72 St,,Riverside Dr & W 72 St,1,In Service,False,41,107
,1,38,,3167,,2018-10-17 11:02:55 AM,40.77966809007312,,-73.98093044757842,,Amsterdam Ave & W 73 St,,Amsterdam Ave & W 73 St,1,In Service,False,55,107
,5,25,,3168,,2018-10-17 11:02:17 AM,40.78472675,,-73.96961715,,Central Park West & W 85 St,,Central Park West & W 85 St,1,In Service,False,31,164
,0,38,,3169,,2018-10-17 11:01:55 AM,40.78720869,,-73.98128127,,Riverside Dr & W 82 St,,Riverside Dr & W 82 St,1,In Service,False,39,107
,0,33,,3170,,2018-10-17 11:00:38 AM,40.78499979,,-73.97283406,,W 84 St & Columbus Ave,,W 84 St & Columbus Ave,1,In Service,False,35,107
,2,36,,3171,,2018-10-17 11:03:29 AM,40.78524672,,-73.97667321,,Amsterdam Ave & W 82 St,,Amsterdam Ave & W 82 St,1,In Service,False,39,107
,0,27,,3172,,2018-10-17 11:00:41 AM,40.7785669,,-73.97754961,,W 74 St & Columbus Ave,,W 74 St & Columbus Ave,1,In Service,False,27,107
,0,39,,3173,,2018-10-17 11:00:07 AM,40.777507027547976,,-73.98888587951659,,Riverside Blvd & W 67 St,,Riverside Blvd & W 67 St,1,In Service,False,39,107
,0,28,,3175,,2018-10-17 11:02:59 AM,40.77748046,,-73.98288594,,W 70 St & Amsterdam Ave,,W 70 St & Amsterdam Ave,1,In Service,False,31,107
,0,61,,3177,,2018-10-17 11:02:02 AM,40.7867947,,-73.977112,,W 84 St & Broadway,,W 84 St & Broadway,1,In Service,False,63,107
,0,38,,3178,,2018-10-17 11:00:44 AM,40.78414472,,-73.98362492,,Riverside Dr & W 78 St,,Riverside Dr & W 78 St,1,In Service,False,39,107
,4,19,,3179,,2018-10-17 11:00:58 AM,40.698617,,-73.941342,,Park Ave & Marcus Garvey Blvd,,Park Ave & Marcus Garvey Blvd,1,In Service,False,23,303
,0,0,,3180,,1969-12-31 07:00:00 PM,40.69878,,-73.99712,,Brooklyn Bridge Park - Pier 2,,Brooklyn Bridge Park - Pier 2,3,Not In Service,False,0,302
,33,8,,3182,,2018-10-17 11:00:44 AM,40.686931,,-74.016966,,Yankee Ferry Terminal,,Yankee Ferry Terminal,1,In Service,False,42,101
,23,6,,3183,,2018-10-17 11:03:29 AM,40.7162469,,-74.0334588,,Exchange Place,,Exchange Place,1,In Service,False,30,-999
,13,0,,3184,,2018-10-17 11:02:24 AM,40.7141454,,-74.0335519,,Paulus Hook,,Paulus Hook,1,In Service,False,14,-999
,12,10,,3185,,2018-10-17 11:01:38 AM,40.7177325,,-74.043845,,City Hall,,City Hall,1,In Service,False,22,-999
,29,12,,3186,,2018-10-17 11:00:25 AM,40.71958611647166,,-74.04311746358871,,Grove St PATH,,Grove St PATH,1,In Service,False,42,-999
,12,9,,3187,,2018-10-17 11:02:29 AM,40.7211236,,-74.03805095,,Warren St,,Warren St,1,In Service,False,22,-999
,9,7,,3191,,2018-10-17 11:02:03 AM,40.7182113,,-74.0836394,,Union St,,Union St,1,In Service,False,18,-999
,3,17,,3192,,2018-10-17 11:01:34 AM,40.7112423,,-74.0557013,,Liberty Light Rail,,Liberty Light Rail,1,In Service,False,22,-999
,7,11,,3193,,2018-10-17 11:01:51 AM,40.7246050998869,,-74.07840594649315,,Lincoln Park,,Lincoln Park,1,In Service,False,18,-999
,0,19,,3194,,2018-10-17 11:02:36 AM,40.7253399253558,,-74.06762212514877,,McGinley Square,,McGinley Square,1,In Service,False,22,-999
,32,3,,3195,,2018-10-17 11:00:16 AM,40.73074262530658,,-74.06378388404846,,Sip Ave,,Sip Ave,1,In Service,False,38,-999
,6,12,,3196,,2018-10-17 11:02:07 AM,40.7443187,,-74.0439909,,Riverview Park,,Riverview Park,1,In Service,False,18,-999
,13,5,,3198,,2018-10-17 11:02:23 AM,40.748715945380226,,-74.04044330120087,,Heights Elevator,,Heights Elevator,1,In Service,False,18,-999
,4,7,,3199,,2018-10-17 11:03:11 AM,40.7287448,,-74.0321082,,Newport Pkwy,,Newport Pkwy,1,In Service,False,14,-999
,4,14,,3201,,2018-10-17 11:01:41 AM,40.737711,,-74.066921,,Dey St,,Dey St,1,In Service,False,18,-999
,15,2,,3202,,2018-10-17 11:00:00 AM,40.7272235,,-74.0337589,,Newport PATH,,Newport PATH,1,In Service,False,18,-999
,1,24,,3203,,2018-10-17 11:00:19 AM,40.727595966,,-74.044247311,,Hamilton Park,,Hamilton Park,1,In Service,False,26,-999
,4,18,,3205,,2018-10-17 11:03:16 AM,40.71653978099194,,-74.0496379137039,,JC Medical Center,,JC Medical Center,1,In Service,False,22,-999
,0,13,,3206,,2018-10-16 05:21:23 PM,40.7311689,,-74.0575736,,Hilltop,,Hilltop,1,In Service,False,26,-999
,0,25,,3207,,2018-10-17 11:00:19 AM,40.7376037,,-74.0524783,,Oakland Ave,,Oakland Ave,1,In Service,False,26,-999
,1,20,,3209,,2018-10-17 11:02:29 AM,40.7241765,,-74.0506564,,Brunswick St,,Brunswick St,1,In Service,False,22,-999
,1,16,,3210,,2018-10-17 10:59:49 AM,40.742677141,,-74.051788633,,Pershing Field,,Pershing Field,1,In Service,False,18,-999
,6,15,,3211,,2018-10-17 11:01:08 AM,40.72152515,,-74.046304543,,Newark Ave,,Newark Ave,1,In Service,False,22,-999
,1,20,,3212,,2018-10-17 11:01:35 AM,40.734785818,,-74.050443636,,Christ Hospital,,Christ Hospital,1,In Service,False,22,-999
,4,18,,3213,,2018-10-17 11:00:58 AM,40.71848892,,-74.047726625,,Van Vorst Park,,Van Vorst Park,1,In Service,False,22,-999
,16,3,,3214,,2018-10-17 11:02:18 AM,40.7127742,,-74.0364857,,Essex Light Rail,,Essex Light Rail,1,In Service,False,22,-999
,4,14,,3220,,2018-10-17 11:00:34 AM,40.734961020009514,,-74.0595030784607,,5 Corners Library,,5 Corners Library,1,In Service,False,18,-999
,9,17,,3221,,2018-10-17 11:01:08 AM,40.743,,-73.93561,,47 Ave & 31 St,,47 Ave & 31 St,1,In Service,False,27,402
,2,10,,3225,,2018-10-17 11:00:20 AM,40.7236589,,-74.0641943,,Baldwin at Montgomery,,Baldwin at Montgomery,1,In Service,False,13,-999
,0,45,,3226,,2018-10-17 11:01:04 AM,40.78275,,-73.97137,,W 82 St & Central Park West,,W 82 St & Central Park West,1,In Service,False,45,107
,2,37,,3231,,2018-10-17 11:03:11 AM,40.76780080148132,,-73.96592080593109,,E 67 St & Park Ave,,E 67 St & Park Ave,1,In Service,False,39,108
,10,21,,3232,,2018-10-17 11:03:09 AM,40.68962188790333,,-73.98304268717766,,Bond St & Fulton St,,Bond St & Fulton St,1,In Service,False,31,302
,37,0,,3233,,2018-10-17 10:59:42 AM,40.75724567911726,,-73.97805914282799,,E 48 St & 5 Ave,,E 48 St & 5 Ave,1,In Service,False,39,105
,25,0,,3235,,2018-10-17 11:01:25 AM,40.752165280621966,,-73.97992193698882,,E 41 St & Madison Ave,,E 41 St & Madison Ave,1,In Service,False,31,105
,0,33,,3236,,2018-10-17 11:01:16 AM,40.75898481399634,,-73.99379968643188,,W 42 St & Dyer Ave,,W 42 St & Dyer Ave,1,In Service,False,33,104
,0,19,,3241,,2018-10-17 11:00:46 AM,40.686203,,-73.944694,,Monroe St & Tompkins Ave,,Monroe St & Tompkins Ave,1,In Service,False,19,303
,14,25,,3242,,2018-10-17 11:02:14 AM,40.69102925677968,,-73.99183362722397,,Schermerhorn St & Court St,,Schermerhorn St & Court St,1,In Service,False,39,302
,2,26,,3243,,2018-10-17 11:00:08 AM,40.75892386377695,,-73.96226227283478,,E 58 St & 1 Ave,,E 58 St & 1 Ave,1,In Service,False,29,106
,23,4,,3244,,2018-10-17 11:02:48 AM,40.73143724085228,,-73.99490341544151,,University Pl & E 8 St,,University Pl & E 8 St,1,In Service,False,31,102
,13,6,,3249,,2018-10-17 11:00:19 AM,40.6803560840434,,-73.9476791024208,,Verona Pl & Fulton St,,Verona Pl & Fulton St,1,In Service,False,19,303
,2,16,,3255,,2018-10-17 11:00:54 AM,40.7505853470215,,-73.9946848154068,,8 Ave & W 31 St,,8 Ave & W 31 St,1,In Service,False,19,104
,10,9,,3256,,2018-10-17 11:00:59 AM,40.7277140777778,,-74.01129573583603,,Pier 40 - Hudson River Park,,Pier 40 - Hudson River Park,1,In Service,False,22,102
,1,34,,3258,,2018-10-17 10:59:48 AM,40.75018156325683,,-74.00218427181244,,W 27 St & 10 Ave,,W 27 St & 10 Ave,1,In Service,False,37,104
,0,24,,3259,,2018-10-17 11:02:26 AM,40.74937024193277,,-73.99923384189606,,9 Ave & W 28 St,,9 Ave & W 28 St,1,In Service,False,27,104
,26,4,,3260,,2018-10-17 11:01:54 AM,40.72706363348306,,-73.99662137031554,,Mercer St & Bleecker St,,Mercer St & Bleecker St,1,In Service,False,31,102
,1,56,,3263,,2018-10-17 11:02:21 AM,40.72951496224949,,-73.99075269699097,,Cooper Square & Astor Pl,,Cooper Square & Astor Pl,1,In Service,False,59,103
,1,12,,3267,,2018-10-17 11:00:30 AM,40.7124188237569,,-74.03852552175522,,Morris Canal,,Morris Canal,1,In Service,False,14,-999
,6,7,,3268,,2018-10-17 11:01:57 AM,40.71346382669195,,-74.06285852193832,,Lafayette Park,,Lafayette Park,1,In Service,False,14,-999
,5,8,,3269,,2018-10-17 11:02:55 AM,40.72601172964625,,-74.05038893222809,,Brunswick & 6th,,Brunswick & 6th,1,In Service,False,14,-999
,6,8,,3270,,2018-10-17 11:00:50 AM,40.72528910781132,,-74.04557168483734,,Jersey & 6th St,,Jersey & 6th St,1,In Service,False,14,-999
,2,10,,3272,,2018-10-17 11:01:11 AM,40.72333158646436,,-74.04595255851744,,Jersey & 3rd,,Jersey & 3rd,1,In Service,False,14,-999
,14,3,,3273,,2018-10-17 11:00:38 AM,40.721650724879986,,-74.04288411140442,,Manila & 1st,,Manila & 1st,1,In Service,False,18,-999
,2,12,,3275,,2018-10-17 11:01:49 AM,40.71835519823214,,-74.03891444206238,,Columbus Drive,,Columbus Drive,1,In Service,False,14,-999
,3,22,,3276,,2018-10-17 11:00:08 AM,40.71458403535893,,-74.04281705617905,,Marin Light Rail,,Marin Light Rail,1,In Service,False,26,-999
,11,3,,3277,,2018-10-17 11:03:15 AM,40.71435836870427,,-74.06661093235016,,Communipaw & Berry Lane,,Communipaw & Berry Lane,1,In Service,False,14,-999
,3,9,,3278,,2018-10-17 11:00:12 AM,40.72568548362901,,-74.04879033565521,,Monmouth and 6th,,Monmouth and 6th,1,In Service,False,14,-999
,2,16,,3279,,2018-10-17 11:02:13 AM,40.721630142638354,,-74.04996782541275,,Dixon Mills,,Dixon Mills,1,In Service,False,18,-999
,0,13,,3280,,2018-10-17 11:03:06 AM,40.71928220070702,,-74.07126188278198,,Astor Place,,Astor Place,1,In Service,False,14,-999
,1,13,,3281,,2018-10-17 11:00:15 AM,40.74590996631558,,-74.0572714805603,,Leonard Gordon Park,,Leonard Gordon Park,1,In Service,False,14,-999
,3,33,,3282,,2018-10-17 10:59:40 AM,40.78307,,-73.95939,,5 Ave & E 88 St,,5 Ave & E 88 St,1,In Service,False,38,164
,0,44,,3283,,2018-10-17 11:03:27 AM,40.7882213,,-73.97041561,,W 89 St & Columbus Ave,,W 89 St & Columbus Ave,1,In Service,False,47,107
,1,35,,3284,,2018-10-17 11:00:32 AM,40.781410700190015,,-73.95595908164978,,E 88 St & Park Ave,,E 88 St & Park Ave,1,In Service,False,38,108
,1,40,,3285,,2018-10-17 10:59:51 AM,40.78839,,-73.9747,,W 87 St & Amsterdam Ave,,W 87 St & Amsterdam Ave,1,In Service,False,43,107
,0,39,,3286,,2018-10-17 11:02:47 AM,40.7806284,,-73.9521667,,E 89 St & 3 Ave,,E 89 St & 3 Ave,1,In Service,False,39,108
,0,38,,3288,,2018-10-17 11:02:46 AM,40.778301,,-73.9488134,,E 88 St & 1 Ave,,E 88 St & 1 Ave,1,In Service,False,39,108
,0,32,,3289,,2018-10-17 10:59:40 AM,40.79017948095081,,-73.97288918495178,,W 90 St & Amsterdam Ave,,W 90 St & Amsterdam Ave,1,In Service,False,32,107
,1,34,,3290,,2018-10-17 11:01:36 AM,40.7779453,,-73.946041,,E 89 St & York Ave,,E 89 St & York Ave,1,In Service,False,35,108
,0,41,,3292,,2018-10-17 11:02:44 AM,40.7857851,,-73.957481,,5 Ave & E 93 St,,5 Ave & E 93 St,1,In Service,False,43,164
,1,23,,3293,,2018-10-17 10:59:39 AM,40.7921,,-73.9739,,W 92 St & Broadway,,W 92 St & Broadway,1,In Service,False,24,107
,2,36,,3294,,2018-10-17 11:00:58 AM,40.7835016,,-73.955327,,E 91 St & Park Ave,,E 91 St & Park Ave,1,In Service,False,38,108
,0,59,,3295,,2018-10-17 11:01:24 AM,40.79127,,-73.964839,,Central Park W & W 96 St,,Central Park W & W 96 St,1,In Service,False,59,164
,0,41,,3296,,2018-10-17 11:01:55 AM,40.782454175279874,,-73.9489196240902,,E 93 St & 2 Ave,,E 93 St & 2 Ave,1,In Service,False,42,108
,0,20,,3297,,2018-10-17 11:01:04 AM,40.6686627,,-73.97988067,,6 St & 7 Ave,,6 St & 7 Ave,1,In Service,False,21,306
,0,23,,3298,,2018-10-17 11:00:24 AM,40.686371,,-73.99383324,,Warren St & Court St,,Warren St & Court St,1,In Service,False,23,306
,6,19,,3299,,2018-10-17 11:02:31 AM,40.78813,,-73.95206,,E 98 St & Park Ave,,E 98 St & Park Ave,1,In Service,False,25,111
,0,25,,3300,,2018-10-17 11:01:36 AM,40.66514681533792,,-73.97637605667114,,Prospect Park West & 8 St,,Prospect Park West & 8 St,1,In Service,False,25,355
,0,0,,3301,,2018-09-18 08:59:04 AM,40.7919557,,-73.968087,,Columbus Ave & W 95 St,,Columbus Ave & W 95 St,3,Not In Service,False,0,107
,0,22,,3302,,2018-10-17 11:02:22 AM,40.7969347,,-73.9643412291,,Columbus Ave & W 103 St,,Columbus Ave & W 103 St,1,In Service,False,22,107
,0,25,,3303,,2018-10-17 11:01:49 AM,40.6849894,,-73.99440329,,Butler St & Court St,,Butler St & Court St,1,In Service,False,25,306
,0,27,,3304,,2018-10-17 11:02:46 AM,40.668127,,-73.98377641,,6 Ave & 9 St,,6 Ave & 9 St,1,In Service,False,27,306
,2,35,,3305,,2018-10-17 11:03:21 AM,40.78112229934166,,-73.94965589046478,,E 91 St & 2 Ave,,E 91 St & 2 Ave,1,In Service,False,39,108
,0,22,,3306,,2018-10-17 11:02:19 AM,40.6662078,,-73.98199886,,10 St & 7 Ave,,10 St & 7 Ave,1,In Service,False,23,306
,0,31,,3307,,2018-10-17 11:02:09 AM,40.7941654,,-73.974124,,West End Ave & W 94 St,,West End Ave & W 94 St,1,In Service,False,31,107
,0,27,,3308,,2018-10-17 11:00:50 AM,40.6861758,,-73.99645295,,Kane St & Clinton St,,Kane St & Clinton St,1,In Service,False,27,306
,0,30,,3309,,2018-10-17 11:03:22 AM,40.7859201,,-73.94860294,,E 97 St & 3 Ave,,E 97 St & 3 Ave,1,In Service,False,30,111
,0,24,,3310,,2018-10-17 11:02:40 AM,40.663779,,-73.98396846,,14 St & 7 Ave,,14 St & 7 Ave,1,In Service,False,24,306
,0,21,,3311,,2018-10-17 11:02:00 AM,40.68763155,,-74.0016256,,Columbia St & Kane St,,Columbia St & Kane St,1,In Service,False,21,306
,2,37,,3312,,2018-10-17 11:00:49 AM,40.7817212,,-73.94594,,1 Ave & E 94 St,,1 Ave & E 94 St,1,In Service,False,39,108
,1,28,,3313,,2018-10-17 11:03:06 AM,40.6663181,,-73.9854617,,6 Ave & 12 St,,6 Ave & 12 St,1,In Service,False,29,306
,1,30,,3314,,2018-10-17 11:02:22 AM,40.7937704,,-73.971888,,W 95 St & Broadway,,W 95 St & Broadway,1,In Service,False,32,107
,1,21,,3315,,2018-10-17 11:02:33 AM,40.6847514,,-73.99917254,,Henry St & Degraw St,,Henry St & Degraw St,1,In Service,False,23,306
,7,17,,3317,,2018-10-17 11:02:15 AM,40.6686273,,-73.98700053,,10 St & 5 Ave,,10 St & 5 Ave,1,In Service,False,24,306
,4,34,,3318,,2018-10-17 11:02:29 AM,40.7839636,,-73.9471673,,2 Ave & E 96 St,,2 Ave & E 96 St,1,In Service,False,39,108
,2,19,,3319,,2018-10-17 11:02:47 AM,40.666287,,-73.98895053,,14 St & 5 Ave,,14 St & 5 Ave,1,In Service,False,21,306
,0,49,,3320,,2018-10-17 11:02:54 AM,40.79406660818552,,-73.96286845207214,,Central Park West & W 100 St,,Central Park West & W 100 St,1,In Service,False,49,164
,1,23,,3321,,2018-10-17 11:00:39 AM,40.6831164,,-73.99785267,,Clinton St & Union St,,Clinton St & Union St,1,In Service,False,25,306
,1,24,,3322,,2018-10-17 11:00:24 AM,40.668603,,-73.9904394,,12 St & 4 Ave,,12 St & 4 Ave,1,In Service,False,25,306
,1,58,,3323,,2018-10-17 11:02:18 AM,40.7981856,,-73.9605909006,,W 106 St & Central Park West,,W 106 St & Central Park West,1,In Service,False,59,107
,8,16,,3324,,2018-10-17 11:01:28 AM,40.6685455,,-73.99333264,,3 Ave & 14 St,,3 Ave & 14 St,1,In Service,False,25,306
,2,19,,3326,,2018-10-17 10:59:33 AM,40.67434,,-74.00194698,,Clinton St & Centre St,,Clinton St & Centre St,1,In Service,False,21,306
,0,27,,3327,,2018-10-17 11:00:16 AM,40.7877214,,-73.94728331,,3 Ave & E 100 St,,3 Ave & E 100 St,1,In Service,False,27,111
,0,39,,3328,,2018-10-17 11:03:17 AM,40.795,,-73.9645,,W 100 St & Manhattan Ave,,W 100 St & Manhattan Ave,1,In Service,False,39,107
,9,18,,3329,,2018-10-17 11:03:13 AM,40.6829151,,-73.99318208,,Degraw St & Smith St,,Degraw St & Smith St,1,In Service,False,27,306
,10,8,,3330,,2018-10-17 11:00:13 AM,40.6725058,,-74.00494695,,Henry St & Bay St,,Henry St & Bay St,1,In Service,False,19,306
,0,38,,3331,,2018-10-17 11:00:07 AM,40.8013434,,-73.9711457439,,Riverside Dr & W 104 St,,Riverside Dr & W 104 St,1,In Service,False,39,107
,3,16,,3332,,2018-10-17 10:59:46 AM,40.681990442707026,,-73.99079024791718,,Degraw St & Hoyt St,,Degraw St & Hoyt St,1,In Service,False,19,306
,10,11,,3333,,2018-10-17 11:00:24 AM,40.6747055,,-74.0075572,,Columbia St & Lorraine St,,Columbia St & Lorraine St,1,In Service,False,21,306
,9,19,,3335,,2018-10-17 11:00:48 AM,40.6772744,,-73.98282002,,Union St & 4 Ave,,Union St & 4 Ave,1,In Service,False,28,306
,0,40,,3336,,2018-10-17 11:03:28 AM,40.787801,,-73.953559,,E 97 St & Madison Ave,,E 97 St & Madison Ave,1,In Service,False,41,111
,14,9,,3337,,2018-10-17 11:00:43 AM,40.67363551341504,,-74.01195555925369,,Dwight St & Van Dyke St,,Dwight St & Van Dyke St,1,In Service,False,23,306
,0,30,,3338,,2018-10-17 11:02:05 AM,40.7862586,,-73.94552579,,2 Ave & E 99 St,,2 Ave & E 99 St,1,In Service,False,31,111
,1,20,,3339,,2018-10-17 11:00:45 AM,40.6765304,,-73.97846879,,Berkeley Pl & 6 Ave,,Berkeley Pl & 6 Ave,1,In Service,False,23,306
,4,17,,3340,,2018-10-17 11:03:01 AM,40.6753274,,-74.0100698,,Wolcott St & Dwight St,,Wolcott St & Dwight St,1,In Service,False,21,306
,0,40,,3341,,2018-10-17 11:00:22 AM,40.795346,,-73.96186,,Central Park West & W 102 St,,Central Park West & W 102 St,1,In Service,False,41,164
,6,17,,3342,,2018-10-17 11:01:51 AM,40.6777748,,-74.0094613,,Pioneer St & Richards St,,Pioneer St & Richards St,1,In Service,False,23,306
,0,23,,3343,,2018-10-17 11:03:20 AM,40.7997568,,-73.9621128676,,W 107 St & Columbus Ave,,W 107 St & Columbus Ave,1,In Service,False,23,107
,8,11,,3344,,2018-10-17 11:02:53 AM,40.679043,,-74.011169,,Pioneer St & Van Brunt St,,Pioneer St & Van Brunt St,1,In Service,False,19,306
,12,23,,3345,,2018-10-17 11:02:41 AM,40.78948541553215,,-73.95242929458618,,Madison Ave & E 99 St,,Madison Ave & E 99 St,1,In Service,False,35,111
,0,29,,3346,,2018-10-17 11:00:31 AM,40.675146838709786,,-73.97523209452629,,Berkeley Pl & 7 Ave,,Berkeley Pl & 7 Ave,1,In Service,False,29,306
,10,11,,3347,,2018-10-17 10:59:57 AM,40.6773429,,-74.01275056,,Van Brunt St & Wolcott St,,Van Brunt St & Wolcott St,1,In Service,False,21,306
,16,3,,3348,,2018-10-17 11:01:08 AM,40.677236,,-74.015665,,Coffey St & Conover St,,Coffey St & Conover St,1,In Service,False,19,306
,5,25,,3349,,2018-10-17 11:00:22 AM,40.6729679,,-73.97087984,,Grand Army Plaza & Plaza St West,,Grand Army Plaza & Plaza St West,1,In Service,False,30,355
,0,37,,3350,,2018-10-17 11:02:11 AM,40.7973721,,-73.97041192,,W 100 St & Broadway,,W 100 St & Broadway,1,In Service,False,39,107
,0,24,,3351,,2018-10-17 11:00:05 AM,40.7869946,,-73.94164802,,E 102 St & 1 Ave,,E 102 St & 1 Ave,1,In Service,False,25,111
,8,12,,3352,,2018-10-17 11:00:27 AM,40.67267243410948,,-74.0087952464819,,Sigourney St & Columbia St,,Sigourney St & Columbia St,1,In Service,False,21,306
,12,19,,3354,,2018-10-17 11:02:11 AM,40.668132,,-73.97363831,,3 St & Prospect Park West,,3 St & Prospect Park West,1,In Service,False,31,355
,7,17,,3355,,2018-10-17 11:02:42 AM,40.76800889305947,,-73.96845281124115,,E 66 St & Madison Ave,,E 66 St & Madison Ave,1,In Service,False,25,108
,0,18,,3356,,2018-10-17 10:59:58 AM,40.7746671,,-73.98470567,,Amsterdam Ave & W 66 St,,Amsterdam Ave & W 66 St,1,In Service,False,21,107
,0,32,,3357,,2018-10-17 11:00:36 AM,40.8008363,,-73.9664492472,,W 106 St & Amsterdam Ave,,W 106 St & Amsterdam Ave,1,In Service,False,35,107
,2,23,,3358,,2018-10-17 11:02:42 AM,40.6711978,,-73.97484126,,Garfield Pl & 8 Ave,,Garfield Pl & 8 Ave,1,In Service,False,25,306
,4,31,,3359,,2018-10-17 11:01:55 AM,40.7691572,,-73.96703464,,E 68 St & Madison Ave,,E 68 St & Madison Ave,1,In Service,False,35,108
,1,24,,3360,,2018-10-17 11:02:05 AM,40.7829391,,-73.9786517,,Amsterdam Ave & W 79 St,,Amsterdam Ave & W 79 St,1,In Service,False,25,107
,1,22,,3361,,2018-10-17 11:00:04 AM,40.6740886,,-73.9787282,,Carroll St & 6 Ave,,Carroll St & 6 Ave,1,In Service,False,23,306
,0,33,,3362,,2018-10-17 11:02:25 AM,40.7781314,,-73.96069399,,Madison Ave & E 82 St,,Madison Ave & E 82 St,1,In Service,False,34,108
,12,21,,3363,,2018-10-17 11:00:17 AM,40.7904828,,-73.95033068,,E 102 St & Park Ave,,E 102 St & Park Ave,1,In Service,False,33,111
,1,26,,3364,,2018-10-17 11:02:22 AM,40.6751622,,-73.9814832,,Carroll St & 5 Ave,,Carroll St & 5 Ave,1,In Service,False,27,306
,0,27,,3365,,2018-10-17 10:58:33 AM,40.6703837,,-73.97839676,,3 St & 7 Ave,,3 St & 7 Ave,1,In Service,False,27,306
,0,29,,3366,,2018-10-17 11:02:30 AM,40.8021174,,-73.9681805305,,West End Ave & W 107 St,,West End Ave & W 107 St,1,In Service,False,31,107
,17,19,,3367,,2018-10-17 11:02:57 AM,40.7922553,,-73.95249933,,5 Ave & E 103 St,,5 Ave & E 103 St,1,In Service,False,39,111
,0,30,,3368,,2018-10-17 11:00:40 AM,40.6728155,,-73.98352355,,5 Ave & 3 St,,5 Ave & 3 St,1,In Service,False,30,306
,0,29,,3369,,2018-10-17 11:03:09 AM,40.7724607,,-73.9468208,,E 82 St & East End Ave,,E 82 St & East End Ave,1,In Service,False,29,108
,0,25,,3370,,2018-10-17 11:00:42 AM,40.7727966,,-73.95577801,,E 78 St & 2 Ave,,E 78 St & 2 Ave,1,In Service,False,25,108
,9,18,,3371,,2018-10-17 11:01:20 AM,40.674613422475815,,-73.98501142859459,,4 Ave & 2 St,,4 Ave & 2 St,1,In Service,False,27,306
,0,35,,3372,,2018-10-17 11:03:27 AM,40.7689738,,-73.95482273,,E 74 St & 1 Ave,,E 74 St & 1 Ave,1,In Service,False,39,108
,19,7,,3373,,2018-10-17 11:01:29 AM,40.6750705,,-73.98775226,,3 St & 3 Ave,,3 St & 3 Ave,1,In Service,False,27,306
,1,34,,3374,,2018-10-17 11:02:57 AM,40.799484,,-73.955613,,Central Park North & Adam Clayton Powell Blvd,,Central Park North & Adam Clayton Powell Blvd,1,In Service,False,36,164
,1,34,,3375,,2018-10-17 11:00:50 AM,40.7699426,,-73.96060712,,3 Ave & E 72 St,,3 Ave & E 72 St,1,In Service,False,35,108
,1,38,,3376,,2018-10-17 11:02:01 AM,40.76471851944339,,-73.96222069859505,,E 65 St & 2 Ave,,E 65 St & 2 Ave,1,In Service,False,39,108
,0,25,,3377,,2018-10-17 11:02:58 AM,40.6786115,,-73.99037292,,Carroll St & Bond St,,Carroll St & Bond St,1,In Service,False,25,306
,2,26,,3378,,2018-10-17 11:03:25 AM,40.773763,,-73.96222088,,E 76 St & Park Ave,,E 76 St & Park Ave,1,In Service,False,28,108
,4,30,,3379,,2018-10-17 11:00:11 AM,40.7903051,,-73.94755757,,E 103 St & Lexington Ave,,E 103 St & Lexington Ave,1,In Service,False,35,111
,5,16,,3381,,2018-10-17 11:01:22 AM,40.6777287,,-73.99364123,,3 St & Hoyt St,,3 St & Hoyt St,1,In Service,False,21,306
,6,22,,3382,,2018-10-17 11:02:18 AM,40.680611,,-73.99475825,,Carroll St & Smith St,,Carroll St & Smith St,1,In Service,False,31,306
,0,25,,3383,,2018-10-17 11:00:04 AM,40.804213,,-73.96699104,,Cathedral Pkwy & Broadway,,Cathedral Pkwy & Broadway,1,In Service,False,25,107
,1,24,,3384,,2018-10-17 11:03:05 AM,40.6787242,,-73.99599099,,Smith St & 3 St,,Smith St & 3 St,1,In Service,False,25,306
,1,24,,3386,,2018-10-17 11:02:53 AM,40.6809591,,-73.99905709,,1 Pl & Clinton St,,1 Pl & Clinton St,1,In Service,False,27,306
,3,22,,3387,,2018-10-17 11:01:03 AM,40.7934337,,-73.94945003,,E 106 St & Madison Ave,,E 106 St & Madison Ave,1,In Service,False,25,111
,1,24,,3388,,2018-10-17 11:03:23 AM,40.6828003,,-73.99990419,,President St & Henry St,,President St & Henry St,1,In Service,False,25,306
,7,21,,3389,,2018-10-17 11:00:10 AM,40.6830456,,-74.00348559,,Carroll St & Columbia St,,Carroll St & Columbia St,1,In Service,False,28,306
,0,24,,3390,,2018-10-17 11:01:00 AM,40.79329668,,-73.9432083,,E 109 St & 3 Ave,,E 109 St & 3 Ave,1,In Service,False,24,111
,0,25,,3391,,2018-10-17 11:01:23 AM,40.7892529,,-73.93956237,,E 106 St & 1 Ave,,E 106 St & 1 Ave,1,In Service,False,25,111
,3,15,,3392,,2018-10-17 10:59:52 AM,40.6812117,,-74.00860912,,Commerce St & Van Brunt St,,Commerce St & Van Brunt St,1,In Service,False,19,306
,2,17,,3393,,2018-10-17 11:02:23 AM,40.6794327,,-74.00785041,,Richards St & Delavan St,,Richards St & Delavan St,1,In Service,False,19,306
,7,14,,3394,,2018-10-17 10:59:47 AM,40.6769993,,-74.00647134,,Columbia St & W 9 St,,Columbia St & W 9 St,1,In Service,False,21,306
,2,23,,3396,,2018-10-17 11:01:08 AM,40.6783563,,-74.00014502,,Clinton St & 4 Place,,Clinton St & 4 Place,1,In Service,False,25,306
,0,0,,3397,,2018-09-04 09:50:45 AM,40.6763947,,-73.99869893,,Court St & Nelson St,,Court St & Nelson St,3,Not In Service,False,0,306
,11,12,,3398,,2018-10-17 11:00:30 AM,40.6746957,,-73.99785768,,Smith St & 9 St,,Smith St & 9 St,1,In Service,False,23,306
,3,21,,3399,,2018-10-17 11:02:57 AM,40.67260298150126,,-73.98983001708984,,7 St & 3 Ave,,7 St & 3 Ave,1,In Service,False,24,306
,1,23,,3400,,2018-10-17 11:00:33 AM,40.7961535,,-73.94782145,,E 110 St & Madison Ave,,E 110 St & Madison Ave,1,In Service,False,24,111
,2,17,,3401,,2018-10-17 10:59:25 AM,40.6724811,,-73.99331394,,2 Ave & 9 St,,2 Ave & 9 St,1,In Service,False,19,306
,17,6,,3402,,2018-10-17 11:00:28 AM,40.6902375,,-73.99203074,,Court St & State St,,Court St & State St,1,In Service,False,23,302
,11,19,,3403,,2018-10-17 11:02:50 AM,40.6705135,,-73.98876585,,4 Ave & 9 St,,4 Ave & 9 St,1,In Service,False,31,306
,6,20,,3404,,2018-10-17 10:59:33 AM,40.6704922,,-73.98541675,,7 St & 5 Ave,,7 St & 5 Ave,1,In Service,False,27,306
,0,23,,3405,,2018-10-17 11:01:03 AM,40.6704836,,-73.98208968,,5 St & 6 Ave,,5 St & 6 Ave,1,In Service,False,23,306
,8,15,,3407,,2018-10-17 11:02:27 AM,40.67909799721684,,-73.98765474557877,,Union St & Nevins St,,Union St & Nevins St,1,In Service,False,23,306
,1,25,,3408,,2018-10-17 11:01:23 AM,40.6881529,,-73.99520919,,Congress St & Clinton St,,Congress St & Clinton St,1,In Service,False,27,306
,10,25,,3409,,2018-10-17 11:01:58 AM,40.6867443,,-73.99063168,,Bergen St & Smith St,,Bergen St & Smith St,1,In Service,False,35,302
,0,31,,3410,,2018-10-17 10:59:54 AM,40.6864442,,-73.98759104,,Dean St & Hoyt St,,Dean St & Hoyt St,1,In Service,False,31,302
,1,25,,3411,,2018-10-17 11:01:48 AM,40.6849668,,-73.98620772,,Bond St & Bergen St,,Bond St & Bergen St,1,In Service,False,27,302
,6,11,,3412,,2018-10-17 11:01:10 AM,40.6853761,,-73.98302136,,Pacific St & Nevins St,,Pacific St & Nevins St,1,In Service,False,18,302
,5,17,,3413,,2018-10-17 11:02:23 AM,40.6827549,,-73.98258555,,Wyckoff St & 3 Ave,,Wyckoff St & 3 Ave,1,In Service,False,22,306
,2,31,,3414,,2018-10-17 11:00:10 AM,40.680944723477296,,-73.97567331790923,,Bergen St & Flatbush Ave,,Bergen St & Flatbush Ave,1,In Service,False,33,306
,0,25,,3415,,2018-10-17 11:01:48 AM,40.6793307,,-73.97519523,,Prospect Pl & 6 Ave,,Prospect Pl & 6 Ave,1,In Service,False,25,306
,0,25,,3417,,2018-10-17 11:02:15 AM,40.6795766,,-73.97854971,,Baltic St & 5 Ave,,Baltic St & 5 Ave,1,In Service,False,27,306
,13,20,,3418,,2018-10-17 11:01:51 AM,40.6750207,,-73.97111473,,Plaza St West & Flatbush Ave,,Plaza St West & Flatbush Ave,1,In Service,False,33,355
,5,20,,3419,,2018-10-17 11:02:05 AM,40.6792788,,-73.98154004,,Douglass St & 4 Ave,,Douglass St & 4 Ave,1,In Service,False,27,306
,9,12,,3420,,2018-10-17 11:00:07 AM,40.6802133,,-73.98432695,,Douglass St & 3 Ave,,Douglass St & 3 Ave,1,In Service,False,21,306
,3,20,,3421,,2018-10-17 11:01:41 AM,40.6843549,,-73.98901629,,Hoyt St & Warren St,,Hoyt St & Warren St,1,In Service,False,23,306
,6,13,,3422,,2018-10-17 11:02:51 AM,40.6859296,,-74.00242364,,Columbia St & Degraw St,,Columbia St & Degraw St,1,In Service,False,21,306
,1,27,,3423,,2018-10-17 11:01:28 AM,40.6610633719006,,-73.97945255041122,,West Drive & Prospect Park West,,West Drive & Prospect Park West,1,In Service,False,29,355
,1,26,,3424,,2018-10-17 10:59:53 AM,40.791976,,-73.945993,,E 106 St & Lexington Ave,,E 106 St & Lexington Ave,1,In Service,False,27,111
,0,33,,3425,,2018-10-17 11:00:52 AM,40.7892105,,-73.94370784,,2 Ave & E 104 St,,2 Ave & E 104 St,1,In Service,False,33,111
,12,27,,3427,,2018-10-17 11:03:17 AM,40.72430527250332,,-73.99600982666016,,Lafayette St & Jersey St,,Lafayette St & Jersey St,1,In Service,False,40,102
,32,2,,3429,,2018-10-17 11:03:06 AM,40.68506807308177,,-73.97790759801863,,Hanson Pl & Ashland Pl,,Hanson Pl & Ashland Pl,1,In Service,False,39,302
,0,19,,3430,,2018-10-17 11:00:51 AM,40.71907891179564,,-73.94223690032959,,Richardson St & N Henry St,,Richardson St & N Henry St,1,In Service,False,19,301
,2,21,,3431,,2018-10-17 11:00:50 AM,40.746524,,-73.977885,,E 35 St & 3 Ave,,E 35 St & 3 Ave,1,In Service,False,23,106
,0,34,,3434,,2018-10-17 11:03:15 AM,40.79025417330419,,-73.97718340158461,,W 88 St & West End Ave,,W 88 St & West End Ave,1,In Service,False,35,107
,9,35,,3435,,2018-10-17 11:03:24 AM,40.718822,,-73.99596,,Grand St & Elizabeth St,,Grand St & Elizabeth St,1,In Service,False,45,102
,0,38,,3437,,2018-10-17 11:00:08 AM,40.79313480986663,,-73.97700369358063,,Riverside Dr & W 91 St,,Riverside Dr & W 91 St,1,In Service,False,39,107
,42,0,,3440,,2018-10-17 11:01:12 AM,40.692418292578466,,-73.98949474096298,,Fulton St & Adams St,,Fulton St & Adams St,1,In Service,False,43,302
,0,18,,3449,,2018-10-17 11:00:44 AM,40.721462562298164,,-73.94800901412964,,Eckford St & Engert Ave,,Eckford St & Engert Ave,1,In Service,False,18,301
,1,42,,3452,,2018-10-17 11:00:07 AM,40.71915571696044,,-73.94885390996933,,Bayard St & Leonard St,,Bayard St & Leonard St,1,In Service,False,43,301
,1,17,,3453,,2018-10-17 11:00:35 AM,40.71335226222875,,-73.9491033554077,,Devoe St & Lorimer St,,Devoe St & Lorimer St,1,In Service,False,19,301
,0,24,,3454,,2018-10-17 11:00:11 AM,40.7103685423523,,-73.94705951213837,,Leonard St & Maujer St,,Leonard St & Maujer St,1,In Service,False,24,301
,0,22,,3456,,2018-10-17 11:01:57 AM,40.71638031973561,,-73.94821286201477,,Jackson St & Leonard St,,Jackson St & Leonard St,1,In Service,False,22,301
,43,1,,3457,,2018-10-17 11:01:31 AM,40.76302594280519,,-73.97209525108337,,E 58 St & Madison Ave,,E 58 St & Madison Ave,1,In Service,False,46,105
,37,3,,3458,,2018-10-17 11:03:13 AM,40.76309387270797,,-73.9783501625061,,W 55 St & 6 Ave,,W 55 St & 6 Ave,1,In Service,False,40,105
,26,4,,3459,,2018-10-17 11:01:03 AM,40.75763227739443,,-73.96930575370789,,E 53 St & 3 Ave,,E 53 St & 3 Ave,1,In Service,False,34,106
,32,1,,3461,,2018-10-17 11:01:43 AM,40.714851505262516,,-74.01122331619263,,Murray St & Greenwich St,,Murray St & Greenwich St,1,In Service,False,33,101
,35,3,,3462,,2018-10-17 11:01:54 AM,40.75118387463277,,-73.97138714790344,,E 44 St & 2 Ave,,E 44 St & 2 Ave,1,In Service,False,39,106
,20,15,,3463,,2018-10-17 11:02:21 AM,40.735367055605394,,-73.98797392845154,,E 16 St & Irving Pl,,E 16 St & Irving Pl,1,In Service,False,37,105
,42,0,,3467,,2018-10-17 11:02:05 AM,40.72494672359416,,-74.00165855884552,,W Broadway & Spring Street,,W Broadway & Spring Street,1,In Service,False,42,102
,15,8,,3469,,2018-10-17 11:03:28 AM,40.73181401720966,,-73.95995020866394,,India St & West St,,India St & West St,1,In Service,False,23,301
,21,16,,3472,,2018-10-17 11:01:54 AM,40.742753828659026,,-74.00747358798981,,W 15 St & 10 Ave,,W 15 St & 10 Ave,1,In Service,False,39,104
,31,3,,3474,,2018-10-17 11:03:10 AM,40.7252556952547,,-74.00412082672119,,6 Ave & Spring St,,6 Ave & Spring St,1,In Service,False,36,102
,22,11,,3477,,2018-10-17 10:59:46 AM,40.65539977447831,,-74.01062786579132,,39 St & 2 Ave - Citi Bike HQ at Industry City,,39 St & 2 Ave - Citi Bike HQ at Industry City,1,In Service,False,33,307
,31,10,,3478,,2018-10-17 11:03:28 AM,40.65708866668485,,-74.00870203971863,,2 Ave & 36 St - Citi Bike HQ at Industry City,,2 Ave & 36 St - Citi Bike HQ at Industry City,1,In Service,False,43,307
,34,11,,3479,,2018-10-17 11:01:02 AM,40.68512559515415,,-74.02535319328308,,Picnic Point,,Picnic Point,1,In Service,False,45,101
,2,20,,3481,,2018-10-17 11:02:05 AM,40.71649,,-74.04105,,York St,,York St,1,In Service,False,22,-999
,1,13,,3483,,2018-10-17 11:02:47 AM,40.71942,,-74.05099,,Montgomery St,,Montgomery St,1,In Service,False,14,-999
,18,11,,3486,,2018-10-17 11:02:34 AM,40.688417427540834,,-73.98451656103134,,Schermerhorn St & Bond St,,Schermerhorn St & Bond St,1,In Service,False,30,302
,16,15,,3489,,2018-10-17 11:03:27 AM,40.71069994631387,,-74.00354146957397,,Gold St & Frankfort St,,Gold St & Frankfort St,1,In Service,False,31,101
,1,30,,3490,,2018-10-17 11:01:12 AM,40.796879,,-73.937261,,E 116 St & 2 Ave,,E 116 St & 2 Ave,1,In Service,False,31,111
,6,17,,3491,,2018-10-17 11:01:33 AM,40.79747,,-73.93504,,E 118 St & 1 Ave,,E 118 St & 1 Ave,1,In Service,False,24,111
,0,27,,3492,,2018-10-17 11:00:57 AM,40.8005385,,-73.9419949,,E 118 St & Park Ave,,E 118 St & Park Ave,1,In Service,False,27,111
,1,30,,3493,,2018-10-17 11:03:28 AM,40.799139,,-73.9389152,,E 118 St & 3 Ave,,E 118 St & 3 Ave,1,In Service,False,31,111
,0,24,,3494,,2018-10-17 11:01:35 AM,40.797911,,-73.9423,,E 115 St & Lexington Ave,,E 115 St & Lexington Ave,1,In Service,False,25,111
,4,20,,3495,,2018-10-17 11:00:39 AM,40.7945663,,-73.9362541,,E 114 St & 1 Ave,,E 114 St & 1 Ave,1,In Service,False,26,111
,0,25,,3496,,2018-10-17 11:00:50 AM,40.7923272,,-73.9383,,1 Ave & E 110 St,,1 Ave & E 110 St,1,In Service,False,25,111
,6,16,,3497,,2018-10-17 11:00:31 AM,40.7949879,,-73.9333349,,Pleasant Ave & E 116 St,,Pleasant Ave & E 116 St,1,In Service,False,23,111
,7,10,,3498,,2018-10-17 11:00:49 AM,40.7974772,,-73.9311847,,Pleasant Ave & E 120 St,,Pleasant Ave & E 120 St,1,In Service,False,21,111
,1,24,,3499,,2018-10-17 11:00:50 AM,40.8006721,,-73.9349,,2 Ave & E 122 St,,2 Ave & E 122 St,1,In Service,False,25,111
,1,29,,3500,,2018-10-17 11:01:05 AM,40.7989445,,-73.944846,,E 115 St & Madison Ave,,E 115 St & Madison Ave,1,In Service,False,31,111
,0,28,,3501,,2018-10-17 11:03:12 AM,40.8014866,,-73.9442507,,E 118 St & Madison Ave,,E 118 St & Madison Ave,1,In Service,False,29,111
,5,24,,3502,,2018-10-17 11:01:59 AM,40.7954121,,-73.9441232,,Lexington Ave & E 111 St,,Lexington Ave & E 111 St,1,In Service,False,29,111
,1,29,,3503,,2018-10-17 11:03:09 AM,40.80295,,-73.942954,,Madison Ave & E 120 St,,Madison Ave & E 120 St,1,In Service,False,30,111
,6,21,,3504,,2018-10-17 11:01:59 AM,40.8029263,,-73.9379,,E 123 St & Lexington Ave,,E 123 St & Lexington Ave,1,In Service,False,27,111
,2,31,,3505,,2018-10-17 11:03:19 AM,40.805726,,-73.936322,,Lexington Ave & E 127 St,,Lexington Ave & E 127 St,1,In Service,False,33,111
,3,26,,3506,,2018-10-17 11:01:18 AM,40.8013066,,-73.9398167,,Lexington Ave & E 120 St,,Lexington Ave & E 120 St,1,In Service,False,29,111
,4,30,,3507,,2018-10-17 11:01:27 AM,40.8045555,,-73.9396861,,Park Ave & E 124 St,,Park Ave & E 124 St,1,In Service,False,36,111
,9,21,,3508,,2018-10-17 11:00:24 AM,40.809725,,-73.953149,,St Nicholas Ave & Manhattan Ave,,St Nicholas Ave & Manhattan Ave,1,In Service,False,31,110
,5,26,,3509,,2018-10-17 11:02:36 AM,40.8011939,,-73.9500739,,Lenox Ave & W 115 St,,Lenox Ave & W 115 St,1,In Service,False,31,110
,2,29,,3510,,2018-10-17 11:01:24 AM,40.8078316,,-73.949373,,Adam Clayton Powell Blvd & W 123 St,,Adam Clayton Powell Blvd & W 123 St,1,In Service,False,31,110
,2,19,,3511,,2018-10-17 11:02:31 AM,40.802535,,-73.9532423,,Adam Clayton Powell Blvd & W 115 St,,Adam Clayton Powell Blvd & W 115 St,1,In Service,False,22,110
,7,12,,3512,,2018-10-17 11:03:21 AM,40.7747175,,-73.9337894,,27 Ave & 4 St,,27 Ave & 4 St,1,In Service,False,19,401
,0,20,,3513,,2018-10-17 11:00:57 AM,40.774645,,-73.923706,,21 St & Hoyt Ave S,,21 St & Hoyt Ave S,1,In Service,False,21,401
,1,22,,3514,,2018-10-17 11:02:08 AM,40.7767,,-73.927631,,Astoria Park S & Shore Blvd,,Astoria Park S & Shore Blvd,1,In Service,False,23,401
,0,18,,3515,,2018-10-17 11:02:38 AM,40.774591,,-73.918544,,24 Ave & 26 St,,24 Ave & 26 St,1,In Service,False,19,401
,2,29,,3516,,2018-10-17 11:00:17 AM,40.7699176,,-73.9184057,,31 St & Astoria Blvd,,31 St & Astoria Blvd,1,In Service,False,31,401
,6,26,,3517,,2018-10-17 11:01:37 AM,40.7711528,,-73.9170074,,31 St & Hoyt Ave N,,31 St & Hoyt Ave N,1,In Service,False,35,401
,13,21,,3518,,2018-10-17 11:02:42 AM,40.808442,,-73.9452087,,Lenox Ave & W 126 St,,Lenox Ave & W 126 St,1,In Service,False,34,110
,0,0,,3519,,1969-12-31 07:00:00 PM,40.764258,,-73.911239,,28 Ave & 43 St,,28 Ave & 43 St,3,Not In Service,False,0,401
,6,21,,3520,,2018-10-17 11:02:40 AM,40.804372,,-73.951475,,Adam Clayton Powell Blvd & W 118 St,,Adam Clayton Powell Blvd & W 118 St,1,In Service,False,27,110
,5,30,,3521,,2018-10-17 11:01:21 AM,40.7987859,,-73.9523,,Lenox Ave & W 111 St,,Lenox Ave & W 111 St,1,In Service,False,36,110
,0,19,,3522,,2018-10-17 11:01:07 AM,40.7701477,,-73.9120938,,37 St & 24 Ave,,37 St & 24 Ave,1,In Service,False,19,401
,0,24,,3523,,2018-10-17 11:00:33 AM,40.7729,,-73.916142,,24 Ave & 29 St,,24 Ave & 29 St,1,In Service,False,25,401
,0,22,,3524,,2018-10-17 11:02:11 AM,40.7774552,,-73.9225403,,19 St & 24 Ave,,19 St & 24 Ave,1,In Service,False,23,401
,0,21,,3525,,2018-10-17 11:01:08 AM,40.776165,,-73.9153175,,23 Ave & 27 St,,23 Ave & 27 St,1,In Service,False,21,401
,15,11,,3526,,2018-10-17 11:01:29 AM,40.7747878,,-73.9125551,,31 St & 23 Ave,,31 St & 23 Ave,1,In Service,False,27,401
,0,27,,3527,,2018-10-17 10:59:40 AM,40.80698,,-73.941747,,5 Ave & E 126 St,,5 Ave & E 126 St,1,In Service,False,27,111
,1,19,,3528,,2018-10-17 10:59:52 AM,40.7713937,,-73.9077436,,Steinway St & 23 Ave,,Steinway St & 23 Ave,1,In Service,False,20,401
,2,23,,3529,,2018-10-17 11:00:18 AM,40.8107922,,-73.9430681,,Lenox Ave & W 130 St,,Lenox Ave & W 130 St,1,In Service,False,25,110
,0,19,,3530,,2018-10-17 11:00:13 AM,40.7787185,,-73.9145645,,Crescent St & Ditmars Blvd,,Crescent St & Ditmars Blvd,1,In Service,False,19,401
,5,21,,3531,,2018-10-17 11:03:24 AM,40.8125511,,-73.9492286,,Frederick Douglass Blvd & W 129 St,,Frederick Douglass Blvd & W 129 St,1,In Service,False,27,110
,3,24,,3532,,2018-10-17 11:01:36 AM,40.78145,,-73.9183302,,Ditmars Blvd & 19 St,,Ditmars Blvd & 19 St,1,In Service,False,27,401
,2,32,,3533,,2018-10-17 11:00:59 AM,40.8114323,,-73.9518776,,St. Nicholas Ave & W 126 St,,St. Nicholas Ave & W 126 St,1,In Service,False,34,110
,10,29,,3534,,2018-10-17 11:02:57 AM,40.805159,,-73.954692,,Frederick Douglass Blvd & W 117 St,,Frederick Douglass Blvd & W 117 St,1,In Service,False,39,110
,5,22,,3535,,2018-10-17 11:01:41 AM,40.804038,,-73.945925,,Mt Morris Park W & W 120 St,,Mt Morris Park W & W 120 St,1,In Service,False,27,111
,1,42,,3536,,2018-10-17 10:59:46 AM,40.8082,,-73.9641,,W 116 St & Broadway,,W 116 St & Broadway,1,In Service,False,43,109
,1,28,,3537,,2018-10-17 11:01:37 AM,40.6809741,,-73.9710097,,Carlton Ave & Dean St,,Carlton Ave & Dean St,1,In Service,False,29,308
,0,44,,3538,,2018-10-17 11:01:48 AM,40.802692,,-73.96295,,W 110 St & Amsterdam Ave,,W 110 St & Amsterdam Ave,1,In Service,False,45,109
,4,39,,3539,,2018-10-17 11:01:17 AM,40.8067581,,-73.9607082,,W 116 St & Amsterdam Ave,,W 116 St & Amsterdam Ave,1,In Service,False,43,109
,11,23,,3540,,2018-10-17 11:01:36 AM,40.81,,-73.9551508,,Morningside Ave & W 123 St,,Morningside Ave & W 123 St,1,In Service,False,35,109
,6,32,,3541,,2018-10-17 11:02:24 AM,40.813358,,-73.956461,,Amsterdam Ave & W 125 St,,Amsterdam Ave & W 125 St,1,In Service,False,39,109
,11,18,,3542,,2018-10-17 10:59:50 AM,40.8086249,,-73.9596214,,Amsterdam Ave & W 119 St,,Amsterdam Ave & W 119 St,1,In Service,False,29,109
,3,32,,3543,,2018-10-17 11:00:20 AM,40.81028506306003,,-73.95736455917358,,Morningside Dr & Amsterdam Ave,,Morningside Dr & Amsterdam Ave,1,In Service,False,35,109
,0,27,,3544,,2018-10-17 11:02:02 AM,40.6804836,,-73.9646795,,Underhill Ave & Pacific St,,Underhill Ave & Pacific St,1,In Service,False,27,308
,0,33,,3545,,2018-10-17 11:01:55 AM,40.8120562,,-73.9612547,,Broadway & W 122 St,,Broadway & W 122 St,1,In Service,False,33,109
,0,21,,3546,,2018-10-17 10:59:47 AM,40.6791944,,-73.9587903,,Pacific St & Classon Ave,,Pacific St & Classon Ave,1,In Service,False,21,308
,4,37,,3547,,2018-10-17 11:00:12 AM,40.8143256,,-73.9590255,,Broadway & Moylan Pl,,Broadway & Moylan Pl,1,In Service,False,41,109
,2,21,,3549,,2018-10-17 11:02:15 AM,40.678045,,-73.962408,,Grand Ave & Bergen St,,Grand Ave & Bergen St,1,In Service,False,25,308
,1,22,,3551,,2018-10-17 11:02:28 AM,40.795508,,-73.941606,,3 Ave & E 112 St,,3 Ave & E 112 St,1,In Service,False,23,111
,1,37,,3552,,2018-10-17 10:59:58 AM,40.805973,,-73.964928,,W 113 St & Broadway,,W 113 St & Broadway,1,In Service,False,39,109
,0,37,,3553,,2018-10-17 11:02:58 AM,40.801694,,-73.957145,,Frederick Douglass Blvd & W 112 St,,Frederick Douglass Blvd & W 112 St,1,In Service,False,37,110
,2,24,,3554,,2018-10-17 10:59:44 AM,40.7552433,,-73.9485678,,Vernon Blvd & 41 Rd,,Vernon Blvd & 41 Rd,1,In Service,False,27,401
,10,17,,3555,,2018-10-17 11:00:06 AM,40.751047,,-73.93797,,28 St & 41 Ave,,28 St & 41 Ave,1,In Service,False,27,401
,3,16,,3556,,2018-10-17 11:02:55 AM,40.7527085,,-73.9397405,,24 St & 41 Ave,,24 St & 41 Ave,1,In Service,False,19,401
,2,17,,3557,,2018-10-17 11:02:21 AM,40.75742,,-73.945133,,40 Ave & 9 St,,40 Ave & 9 St,1,In Service,False,19,401
,1,26,,3558,,2018-10-17 11:02:07 AM,40.6794388,,-73.9680438,,Bergen St & Vanderbilt Ave,,Bergen St & Vanderbilt Ave,1,In Service,False,27,308
,0,19,,3559,,2018-10-17 11:02:22 AM,40.7576314,,-73.9391224,,21 St & 38 Ave,,21 St & 38 Ave,1,In Service,False,19,401
,0,19,,3560,,2018-10-17 11:01:33 AM,40.754876,,-73.934326,,28 St & 38 Ave,,28 St & 38 Ave,1,In Service,False,19,401
,4,22,,3561,,2018-10-17 11:03:23 AM,40.7531106,,-73.9279917,,37 Ave & 35 St,,37 Ave & 35 St,1,In Service,False,26,401
,0,27,,3562,,2018-10-17 11:01:33 AM,40.6765198,,-73.9596082,,Classon Ave & St Marks Ave,,Classon Ave & St Marks Ave,1,In Service,False,27,308
,0,20,,3563,,2018-10-17 11:01:18 AM,40.757186,,-73.932719,,28 St & 36 Ave,,28 St & 36 Ave,1,In Service,False,21,401
,0,19,,3564,,2018-10-17 11:00:37 AM,40.7601853,,-73.9362726,,21 St & 36 Ave,,21 St & 36 Ave,1,In Service,False,19,401
,2,17,,3565,,2018-10-17 11:02:39 AM,40.7614376,,-73.9411265,,36 Ave & 10 St,,36 Ave & 10 St,1,In Service,False,19,401
,0,25,,3566,,2018-10-17 11:00:43 AM,40.7596276,,-73.9321455,,Crescent St & 35 Ave,,Crescent St & 35 Ave,1,In Service,False,25,401
,1,18,,3567,,2018-10-17 10:59:35 AM,40.7627442,,-73.9391141,,11 St & 35 Ave,,11 St & 35 Ave,1,In Service,False,19,401
,1,20,,3568,,2018-10-17 11:01:49 AM,40.7569332,,-73.9262231,,34 St & 35 Ave,,34 St & 35 Ave,1,In Service,False,21,401
,0,29,,3569,,2018-10-17 11:01:18 AM,40.6758324,,-73.9561677,,Franklin Ave & St Marks Ave,,Franklin Ave & St Marks Ave,1,In Service,False,29,308
,2,29,,3570,,2018-10-17 11:00:25 AM,40.7557327,,-73.9236611,,35 Ave & 37 St,,35 Ave & 37 St,1,In Service,False,31,401
,0,24,,3571,,2018-10-17 10:59:42 AM,40.676368,,-73.952918,,Bedford Ave & Bergen St,,Bedford Ave & Bergen St,1,In Service,False,24,308
,6,27,,3572,,2018-10-17 11:01:18 AM,40.756913,,-73.921631,,34 Ave & 38 St,,34 Ave & 38 St,1,In Service,False,33,401
,0,25,,3573,,2018-10-17 11:02:04 AM,40.7580583,,-73.9242751,,35 St & 34 Ave,,35 St & 34 Ave,1,In Service,False,25,401
,0,23,,3574,,2018-10-17 11:00:17 AM,40.6769694,,-73.96579,,Prospect Pl & Underhill Ave,,Prospect Pl & Underhill Ave,1,In Service,False,23,308
,0,19,,3575,,2018-10-17 11:03:01 AM,40.76108,,-73.930562,,Crescent St & 34 Ave,,Crescent St & 34 Ave,1,In Service,False,19,401
,0,27,,3576,,2018-10-17 11:01:22 AM,40.6767,,-73.969024,,Park Pl & Vanderbilt Ave,,Park Pl & Vanderbilt Ave,1,In Service,False,27,308
,0,23,,3577,,2018-10-17 10:59:59 AM,40.7628138,,-73.9342862,,34 Ave & 21 St,,34 Ave & 21 St,1,In Service,False,23,401
,0,21,,3578,,2018-10-17 11:03:20 AM,40.6741806,,-73.9564947,,Park Pl & Franklin Ave,,Park Pl & Franklin Ave,1,In Service,False,21,308
,0,24,,3579,,2018-10-17 11:02:15 AM,40.672695,,-73.954131,,Sterling Pl & Bedford Ave,,Sterling Pl & Bedford Ave,1,In Service,False,25,308
,0,29,,3580,,2018-10-17 11:01:23 AM,40.6737236,,-73.9631611,,St Johns Pl & Washington Ave,,St Johns Pl & Washington Ave,1,In Service,False,30,308
,1,26,,3581,,2018-10-17 10:59:52 AM,40.6740123,,-73.9671457,,Underhill Ave & Lincoln Pl,,Underhill Ave & Lincoln Pl,1,In Service,False,27,308
,0,28,,3582,,2018-10-17 11:01:37 AM,40.6721683,,-73.9609,,Lincoln Pl & Classon Ave,,Lincoln Pl & Classon Ave,1,In Service,False,28,308
,1,30,,3583,,2018-10-17 11:00:02 AM,40.6716493,,-73.9631145,,Eastern Pkwy & Washington Ave,,Eastern Pkwy & Washington Ave,1,In Service,False,31,355
,8,34,,3584,,2018-10-17 11:03:22 AM,40.6707767,,-73.9576801,,Eastern Pkwy & Franklin Ave,,Eastern Pkwy & Franklin Ave,1,In Service,False,42,308
,3,20,,3585,,2018-10-17 11:03:06 AM,40.6691783,,-73.9554162,,Union St & Bedford Ave,,Union St & Bedford Ave,1,In Service,False,24,309
,2,16,,3586,,2018-10-17 10:59:59 AM,40.7638753,,-73.9364848,,34 Ave & 13 St,,34 Ave & 13 St,1,In Service,False,19,401
,2,25,,3587,,2018-10-17 11:00:52 AM,40.6686744,,-73.9618148,,Carroll St & Washington Ave,,Carroll St & Washington Ave,1,In Service,False,27,309
,8,13,,3588,,2018-10-17 11:00:46 AM,40.7671863,,-73.9373554,,Vernon Blvd & 10 St,,Vernon Blvd & 10 St,1,In Service,False,21,401
,3,15,,3589,,2018-10-17 11:00:29 AM,40.7668,,-73.9347774,,Broadway & 12 St,,Broadway & 12 St,1,In Service,False,19,401
,1,18,,3590,,2018-10-17 11:00:51 AM,40.6679411,,-73.9588,,Carroll St & Franklin Ave,,Carroll St & Franklin Ave,1,In Service,False,19,309
,1,20,,3591,,2018-10-17 10:59:47 AM,40.7659,,-73.930819,,21 St & 31 Dr,,21 St & 31 Dr,1,In Service,False,21,401
,0,19,,3592,,2018-10-17 10:59:51 AM,40.7633589,,-73.9286471,,Crescent St & Broadway,,Crescent St & Broadway,1,In Service,False,19,401
,0,35,,3593,,2018-10-17 11:03:19 AM,40.761584,,-73.925921,,31 St & Broadway,,31 St & Broadway,1,In Service,False,35,401
,0,18,,3595,,2018-10-17 11:02:21 AM,40.760339,,-73.9222427,,35 St & Broadway,,35 St & Broadway,1,In Service,False,18,401
,1,18,,3596,,2018-10-17 11:03:18 AM,40.6642406,,-73.9574686,,Sullivan Pl & Bedford Ave,,Sullivan Pl & Bedford Ave,1,In Service,False,19,309
,1,23,,3597,,2018-10-17 11:00:27 AM,40.7577284,,-73.9166368,,43 St & Broadway,,43 St & Broadway,1,In Service,False,25,401
,2,17,,3598,,2018-10-17 11:02:55 AM,40.7595701,,-73.9142678,,Newton Rd & 44 St,,Newton Rd & 44 St,1,In Service,False,19,401
,6,21,,3599,,2018-10-17 11:02:31 AM,40.66314,,-73.9605695,,Franklin Ave & Empire Blvd,,Franklin Ave & Empire Blvd,1,In Service,False,27,309
,7,4,,3601,,2018-10-05 11:39:36 PM,40.6627059,,-73.9569115,,Sterling St & Bedford Ave,,Sterling St & Bedford Ave,3,Not In Service,False,19,309
,1,22,,3602,,2018-10-17 11:02:33 AM,40.763154,,-73.920827,,31 Ave & 34 St,,31 Ave & 34 St,1,In Service,False,23,401
,6,22,,3664,,2018-10-17 10:59:45 AM,40.72019521437465,,-74.0103006362915,,North Moore St & Greenwich St,,North Moore St & Greenwich St,1,In Service,False,30,101
,0,21,,3603,,2018-10-17 11:00:26 AM,40.7647,,-73.9240312,,31 Ave & 30 St,,31 Ave & 30 St,1,In Service,False,21,401
,1,16,,3604,,2018-10-17 11:01:55 AM,40.6630619,,-73.9538746,,Rogers Ave & Sterling St,,Rogers Ave & Sterling St,1,In Service,False,17,309
,0,20,,3605,,2018-10-17 10:59:32 AM,40.7658346,,-73.9265474,,31 Ave & Crescent St,,31 Ave & Crescent St,1,In Service,False,21,401
,1,19,,3606,,2018-10-17 11:00:41 AM,40.74252,,-73.948852,,49 Ave & 21 St,,49 Ave & 21 St,1,In Service,False,21,402
,6,13,,3607,,2018-10-17 11:03:03 AM,40.7682,,-73.9322662,,31 Ave & 14 St,,31 Ave & 14 St,1,In Service,False,19,401
,11,10,,3608,,2018-10-17 11:03:06 AM,40.7423737,,-73.9566,,5 St & 51 Ave,,5 St & 51 Ave,1,In Service,False,21,402
,0,23,,3609,,2018-10-17 11:03:15 AM,40.7692475,,-73.9354504,,Vernon Blvd & 31 Ave,,Vernon Blvd & 31 Ave,1,In Service,False,23,401
,13,14,,3610,,2018-10-17 11:03:09 AM,40.770845,,-73.934171,,Vernon Blvd & 30 Rd,,Vernon Blvd & 30 Rd,1,In Service,False,27,401
,4,26,,3611,,2018-10-17 10:59:32 AM,40.7449067,,-73.9534573,,Vernon Blvd & 47 Rd,,Vernon Blvd & 47 Rd,1,In Service,False,31,402
,0,15,,3612,,2018-10-17 11:02:12 AM,40.7703743,,-73.9286078,,30 Ave & 21 St,,30 Ave & 21 St,1,In Service,False,15,401
,5,22,,3613,,2018-10-17 11:00:59 AM,40.745038,,-73.957539,,Center Blvd & 48 Ave,,Center Blvd & 48 Ave,1,In Service,False,27,402
,1,21,,3614,,2018-10-17 10:59:46 AM,40.768692,,-73.9249574,,Crescent St & 30 Ave,,Crescent St & 30 Ave,1,In Service,False,23,401
,10,11,,3615,,2018-10-17 10:59:44 AM,40.748,,-73.9460927,,44 Dr & 21 St,,44 Dr & 21 St,1,In Service,False,21,402
,0,24,,3616,,2018-10-17 11:00:21 AM,40.7656251,,-73.9136695,,Steinway St & 28 Ave,,Steinway St & 28 Ave,1,In Service,False,25,401
,0,27,,3617,,2018-10-17 11:00:26 AM,40.7671,,-73.9169858,,28 Ave & 35 St,,28 Ave & 35 St,1,In Service,False,27,401
,0,25,,3618,,2018-10-17 11:01:53 AM,40.7485,,-73.941275,,27 St & Hunter St,,27 St & Hunter St,1,In Service,False,25,402
